"NOMBRE"	"CALLE.Y.NUMERO"	"LOCALIDAD"	"MUNICIPIO"	"LAT_HITS"	"LNG_HITS"
"MIGUEL DE CERVANTES SAAVEDRA"	"CALLE 16 477"	"MERIDA"	"MERIDA"	"20.9491951"	"-89.6605956"
"ALVARO OBREGON"	""	"CORRAL"	"TZUCACAB"	"19.8123122"	"-89.0040505"
"JUSTICIA SOCIAL"	""	"JUSTICIA SOCIAL"	"PETO"	"19.9308333"	"-88.8594444"
"LOS TRATADOS DE TZUCACAB"	"CALLE 32"	"TZUCACAB"	"TZUCACAB"	"19.9400592"	"-88.8696522"
"ESCUELA SECUNDARIA TECNICA NUM. 64"	""	"CATMIS"	"TZUCACAB"	"19.9544354"	"-88.9434467"
"JUAN DE LA BARRERA"	""	"CATMIS"	"TZUCACAB"	"19.9548602"	"-88.949257"
"GUSTAVO DIAZ ORDAZ"	""	"CATMIS"	"TZUCACAB"	"19.9562144"	"-88.9478214"
"VICENTE GUERRERO"	"CALLE 22"	"TZUCACAB"	"TZUCACAB"	"20.068202"	"-89.0456901"
"FELIPE CARRILLO PUERTO"	"CALLE 35"	"TUNKAS"	"TUNKAS"	"20.0719367"	"-89.046912"
"NARCISO MENDOZA"	"CALLE 23 79"	"TZUCACAB"	"TZUCACAB"	"20.0763245"	"-89.0461957"
"NIÑO ARTILLERO"	"CALLE 23 22"	"TZUCACAB"	"TZUCACAB"	"20.0763894"	"-89.0466065"
"FRANCISCO SARABIA"	"CALLE 28 234"	"PETO"	"PETO"	"20.1165841"	"-88.9216995"
"GASPAR ANTONIO XIU"	"CALLE 45-A 189"	"PETO"	"PETO"	"20.1187438"	"-88.9227752"
"MIGUEL HIDALGO Y COSTILLA"	""	"EK-BALAM"	"TZUCACAB"	"20.122571"	"-89.064793"
"20 DE NOVIEMBRE"	"CALLE 34"	"PETO"	"PETO"	"20.1262672"	"-88.9228321"
"JOSEFA ORTIZ DE DOMINGUEZ"	"CALLE 42"	"PETO"	"PETO"	"20.1272071"	"-88.9288377"
"INOCENCIO RUIZ"	"CALLE 31-A 253"	"PETO"	"PETO"	"20.1292168"	"-88.932078"
"FRANCISCO I. MADERO"	"CALLE 34 201"	"PETO"	"PETO"	"20.1344828"	"-88.9243786"
"PILAR VICTORIA Y VICTORIA"	"CALLE 9"	"PETO"	"PETO"	"20.1370198"	"-88.9221543"
"PILAR VICTORIA Y VICTORIA"	"CALLE 9"	"PETO"	"PETO"	"20.1370198"	"-88.9221543"
"MELCHOR OCAMPO"	"CALLE 32 SN"	"KANCAB"	"TEKAX"	"20.1945143"	"-89.3412426"
"SALVADOR ALVARADO"	""	"KANCAB"	"TEKAX"	"20.1949367"	"-89.3459105"
"CARLOS CASTILLO MONTES DE OCA"	"CALLE 53"	"TEKAX DE ALVARO OBREGON"	"TEKAX"	"20.1971271"	"-89.2752567"
"EVA SAMANO BISHOP"	"CALLE 61 195"	"TEKAX DE ALVARO OBREGON"	"TEKAX"	"20.1971535"	"-89.2839303"
"FRANCISCO VILLA"	""	"CANEK"	"TEKAX"	"20.2000542"	"-89.3297353"
"FABIAN SANSORES"	"CALLE 55 204"	"TEKAX DE ALVARO OBREGON"	"TEKAX"	"20.202486"	"-89.2878031"
"LEV VYGOTSKY"	"CALLE 41"	"TEKAX DE ALVARO OBREGON"	"TEKAX"	"20.2026285"	"-89.2728924"
"FELIPE CARRILLO PUERTO"	"CALLE 51"	"TEKAX DE ALVARO OBREGON"	"TEKAX"	"20.2031298"	"-89.2852844"
"JOSE MONTES DE OCA"	"CALLE 55 202"	"TEKAX DE ALVARO OBREGON"	"TEKAX"	"20.2033395"	"-89.2892601"
"JUAN PACHECO TORRES"	"CALLE 55 268"	"TEKAX DE ALVARO OBREGON"	"TEKAX"	"20.2077397"	"-89.2986715"
"JUAN PACHECO TORRES"	"CALLE 55 268"	"TEKAX DE ALVARO OBREGON"	"TEKAX"	"20.2077397"	"-89.2986715"
"SECUNDARIA COMUNITARIA"	""	"SAN JUAN"	"TEKAX"	"20.2077397"	"-89.2986715"
"ELENA VALENCIA DE GIL"	"CALLE 45 209"	"TEKAX DE ALVARO OBREGON"	"TEKAX"	"20.2083311"	"-89.2879369"
"JOSE DIAZ BOLIO"	""	"TIXCUYTUN"	"TEKAX"	"20.2090436"	"-89.2038921"
"ROGERIO CHALE"	"CALLE 44 177"	"TEKAX DE ALVARO OBREGON"	"TEKAX"	"20.2092488"	"-89.2804957"
"VICENTE GUERRERO"	""	"TIXCUYTUN"	"TEKAX"	"20.2096362"	"-89.2048132"
"JUAN SARABIA"	"CALLE 50 145"	"TEKAX DE ALVARO OBREGON"	"TEKAX"	"20.2102743"	"-89.2845422"
"MANUELA ALONZO ROMERO"	"CALLE 53 135"	"TEKAX DE ALVARO OBREGON"	"TEKAX"	"20.2119444"	"-89.2763888"
"PRIMARIA INDIGENA PAEPI"	""	"HOUITZ"	"TEKAX"	"20.2119444"	"-89.2763888"
"NACHI COCOM"	""	"EMILIANO ZAPATA"	"OXKUTZCAB"	"20.2246309"	"-89.4664681"
"ANTONIO MEDIZ BOLIO"	""	"EMILIANO ZAPATA"	"OXKUTZCAB"	"20.2269048"	"-89.4673541"
"FELIPE CARRILLO PUERTO"	"CALLE 20 40"	"AKIL"	"AKIL"	"20.2633928"	"-89.3476313"
"MOISES VAZQUEZ VEGA"	"CALLE 68"	"OXKUTZCAB"	"OXKUTZCAB"	"20.2927056"	"-89.422971"
"PRIMARIA INDIGENA PAEPI"	""	"SAHCAHMUCUY"	"OXKUTZCAB"	"20.2927056"	"-89.422971"
"VALENTIN GOMEZ FARIAS"	"CALLE 57 75"	"OXKUTZCAB"	"OXKUTZCAB"	"20.2969923"	"-89.4129419"
"ESCUELA SECUNDARIA TECNICA NUM. 70"	"CALLE 28"	"YOTHOLIN"	"TICUL"	"20.2974348"	"-89.3992817"
"SECUNDARIA COMUNITARIA"	""	"BOMBAHALTUN"	"OXKUTZCAB"	"20.2974348"	"-89.3992817"
"SAC NICTE"	"CALLE 32 95 D"	"OXKUTZCAB"	"OXKUTZCAB"	"20.2998375"	"-89.4044707"
"ARCADIO SANTOYO"	"CALLE 50 50"	"OXKUTZCAB"	"OXKUTZCAB"	"20.3010922"	"-89.4186014"
"NIÑO ARTILLERO"	""	"OXKUTZCAB"	"OXKUTZCAB"	"20.3017579"	"-89.3902638"
"XICOTENCATL"	"CALLE 44"	"OXKUTZCAB"	"OXKUTZCAB"	"20.3020035"	"-89.414865"
"FELIPE CARRILLO PUERTO"	"CALLE 36 65"	"OXKUTZCAB"	"OXKUTZCAB"	"20.3047279"	"-89.4209385"
"CHAN KIIN"	"CALLE 54 100"	"OXKUTZCAB"	"OXKUTZCAB"	"20.3053415"	"-89.4199882"
"MOISES VAZQUEZ PACHO"	"CALLE 56"	"OXKUTZCAB"	"OXKUTZCAB"	"20.3064743"	"-89.4206218"
"JACINTO CANEK"	"CALLE 52 103"	"OXKUTZCAB"	"OXKUTZCAB"	"20.3066173"	"-89.4183844"
"JOSE ANDRES ESPINOSA COLONIA"	"CALLE 52 105 D"	"OXKUTZCAB"	"OXKUTZCAB"	"20.3066173"	"-89.4183844"
"JOSEFA ORTIZ DE DOMINGUEZ"	"CALLE 52 105 D"	"OXKUTZCAB"	"OXKUTZCAB"	"20.3066173"	"-89.4183844"
"JOSE DE LOS REYES MARTINEZ"	"CALLE 45 112"	"OXKUTZCAB"	"OXKUTZCAB"	"20.3075178"	"-89.4212525"
"EMILIANO ZAPATA"	"CALLE 47 142"	"OXKUTZCAB"	"OXKUTZCAB"	"20.3086249"	"-89.4257713"
"ESCUELA CONAFE"	""	"EMILIANO ZAPATA"	"OXKUTZCAB"	"20.3086249"	"-89.4257713"
"JUAN DE DIOS RODRIGUEZ HEREDIA"	"CALLE 47 142"	"OXKUTZCAB"	"OXKUTZCAB"	"20.3087056"	"-89.4258537"
"MELCHOR OCAMPO"	"CALLE 40"	"OXKUTZCAB"	"OXKUTZCAB"	"20.3093745"	"-89.408305"
"RAFAEL MATOS ESCOBEDO"	"CALLE 43 100 A"	"OXKUTZCAB"	"OXKUTZCAB"	"20.3101"	"-89.4183784"
"RAFAEL MATOS ESCOBEDO"	"CALLE 43 100 A"	"OXKUTZCAB"	"OXKUTZCAB"	"20.3101"	"-89.4183784"
"CARLOS CARRILLO ALONZO"	"CALLE 50 50"	"OXKUTZCAB"	"OXKUTZCAB"	"20.3114884"	"-89.4154897"
"YOOTOCH MEJEN CHI'IICH"	"CALLE 31"	"OXKUTZCAB"	"OXKUTZCAB"	"20.3180992"	"-89.4106154"
"UXMAL"	""	"MERIDA"	"MERIDA"	"20.3766493"	"-89.7713016"
"IXCHEL"	"CALLE 37"	"TICUL"	"TICUL"	"20.3811803"	"-89.5332205"
"JACINTO PAT"	"CALLE 20 SN"	"DZAN"	"DZAN"	"20.3883765"	"-89.4691036"
"LUIS HIDALGO MONROY"	"CALLE 19"	"DZAN"	"DZAN"	"20.3897829"	"-89.4743079"
"DELIO CASTILLO AYUSO"	"CALLE 23"	"MANI"	"MANI"	"20.3900574"	"-89.3941745"
"YUCATAN"	"CALLE 33 170 B"	"TICUL"	"TICUL"	"20.3912217"	"-89.5274673"
"RODOLFO MENENDEZ DE LA PEÑA"	"CALLE 29 214"	"TICUL"	"TICUL"	"20.3933276"	"-89.5378232"
"30 DE ABRIL"	"CALLE 27"	"TICUL"	"TICUL"	"20.3935235"	"-89.546447"
"CUAUHTEMOC"	"CALLE 14 203 B"	"TICUL"	"TICUL"	"20.3946554"	"-89.5231789"
"VENUSTIANO CARRANZA"	"CALLE 25 226"	"TICUL"	"TICUL"	"20.3962476"	"-89.5405719"
"FELIPE CARRILLO PUERTO"	"CALLE 24 256 A"	"TICUL"	"TICUL"	"20.3970298"	"-89.532789"
"SATURNINO GOMEZ SOSA"	"CALLE 21"	"TICUL"	"TICUL"	"20.3971467"	"-89.5510899"
"JOAQUIN BARRERA GONZALEZ"	"CALLE 25 200"	"TICUL"	"TICUL"	"20.3975632"	"-89.5318519"
"VICENTE GUERRERO"	"CALLE 19"	"TICUL"	"TICUL"	"20.4004595"	"-89.5318949"
"RICARDO FLORES MAGON"	"CALLE 25 139 NA"	"TICUL"	"TICUL"	"20.4005146"	"-89.5232769"
"MANUEL CEPEDA PERAZA"	"CALLE 15 218"	"TICUL"	"TICUL"	"20.4030518"	"-89.5392716"
"COL. OBRERA"	"CALLE 18"	"TICUL"	"TICUL"	"20.4030959"	"-89.5276198"
"ESTADO DE CAMPECHE"	"CALLE 24 173"	"TICUL"	"TICUL"	"20.4037045"	"-89.533939"
"JOSE DOLORES RODRIGUEZ TAMAYO"	"CALLE 18 175 A"	"TICUL"	"TICUL"	"20.4060522"	"-89.5285162"
"FELIPE CARRILLO PUERTO"	"CALLE 9"	"TICUL"	"TICUL"	"20.4099788"	"-89.5349646"
"BENITO JUAREZ GARCIA"	"CALLE 29"	"CHAPAB"	"CHAPAB"	"20.4550536"	"-89.4534677"
"FELIPE DE JESUS MIS"	"CALLE 33 99"	"HALACHO"	"HALACHO"	"20.4699281"	"-90.0801514"
"FRANCISCO J. MUJICA"	"CALLE 26"	"CANTAMAYEC"	"CANTAMAYEC"	"20.472265"	"-89.0838895"
"VALENTIN GOMEZ FARIAS"	"CALLE 32 207"	"MAMA"	"MAMA"	"20.4759086"	"-89.3685597"
"LUIS DONALDO COLOSIO MURRIETA"	"CALLE 19 106"	"HALACHO"	"HALACHO"	"20.4787311"	"-90.08257"
"ALFONSO CASO ANDRADE"	"CALLE 20"	"MUNA"	"MUNA"	"20.4803239"	"-89.7104468"
"FELIPE CARRILLO PUERTO"	"CALLE 17 91 NA"	"HALACHO"	"HALACHO"	"20.4803868"	"-90.0779829"
"FELIPE CARRILLO PUERTO"	"CALLE 15"	"MUNA"	"MUNA"	"20.4828214"	"-89.7049847"
"LEOPOLDO ARANA CABRERA"	"CALLE 36 236"	"MUNA"	"MUNA"	"20.4847898"	"-89.7204671"
"PEDRO C DOMINGUEZ"	"CALLE 26 171"	"MUNA"	"MUNA"	"20.4855818"	"-89.713662"
"PREESCOLAR INDIGENA PAEPI"	""	"X'TUT"	"TEMOZON"	"20.4864898"	"-87.9921584"
"RAMON GONZALEZ JIMENEZ"	"CALLE 20"	"HALACHO"	"HALACHO"	"20.492326"	"-90.0769858"
"AQUILES SERDAN"	"CALLE 26"	"SACALUM"	"SACALUM"	"20.4974133"	"-89.5894138"
"BENITO JUAREZ GARCIA"	""	"LOL-BE"	"CHEMAX"	"20.5021757"	"-87.9238695"
"HERMENEGILDO GALEANA"	"CALLE 11"	"CEPEDA"	"HALACHO"	"20.5069872"	"-90.1094518"
"ESCUELA SECUNDARIA TECNICA NUM. 53"	"CALLE 17"	"CEPEDA"	"HALACHO"	"20.5113634"	"-90.1187234"
"PRINCIPE XIU"	"CALLE 21"	"TEKIT"	"TEKIT"	"20.5353053"	"-89.3298903"
"VENUSTIANO CARRANZA"	"CALLE 25"	"YAXCABA"	"YAXCABA"	"20.5474404"	"-88.8264977"
"ESCUELA SECUNDARIA TECNICA NUM. 42"	"CALLE 23"	"OPICHEN"	"OPICHEN"	"20.5475198"	"-89.8500283"
"NICTE HA"	"CALLE 17"	"YAXCABA"	"YAXCABA"	"20.5478862"	"-88.8276919"
"JOSE EUGENIO CHABLE"	""	"CALCEHTOK"	"OPICHEN"	"20.5682889"	"-89.9119472"
"ESCUELA SECUNDARIA TECNICA NUM. 5"	"CALLE 25"	"MAXCANU"	"MAXCANU"	"20.5815014"	"-90.0083441"
"DRA.  MONTESSORI"	"CALLE 20 103"	"MAXCANU"	"MAXCANU"	"20.5829498"	"-90.0009318"
"BENITO JUAREZ GARCIA"	"CALLE 16 82"	"MAXCANU"	"MAXCANU"	"20.5837337"	"-89.9967371"
"GUADALUPE VICTORIA"	"CALLE 19"	"MAXCANU"	"MAXCANU"	"20.5845372"	"-89.997002"
"ELADIO NOVELO GIL"	"CALLE 14 79"	"MAXCANU"	"MAXCANU"	"20.5856059"	"-89.995186"
"JOAQUIN BARANDA"	"CALLE 15"	"MAXCANU"	"MAXCANU"	"20.5870954"	"-90.004663"
"RENE TORRES CASTILLO"	"CALLE 16 82"	"MAXCANU"	"MAXCANU"	"20.5889654"	"-89.9967019"
"HERBERT SPENCER"	"CALLE 13"	"MAXCANU"	"MAXCANU"	"20.5904573"	"-90.0062564"
"LAZARO CARDENAS DEL RIO"	"CALLE 13"	"MAXCANU"	"MAXCANU"	"20.5904698"	"-90.0056517"
"MELCHOR OCAMPO"	"CALLE 23 78"	"SOTUTA"	"SOTUTA"	"20.5947583"	"-89.0048651"
"LEONA VICARIO"	"CALLE 20"	"SOTUTA"	"SOTUTA"	"20.5956727"	"-89.0068934"
"NACHI COCOM"	"CALLE 20 100"	"SOTUTA"	"SOTUTA"	"20.5968847"	"-89.0064059"
"PEDRO PABLO ECHEVERRIA"	"CALLE 21 163"	"SOTUTA"	"SOTUTA"	"20.5989466"	"-89.0145746"
"MANUEL ALCALA MARTIN"	""	"XOCEN"	"VALLADOLID"	"20.59903"	"-88.163444"
"1 DE MAYO"	""	"KAUA"	"KAUA"	"20.6214393"	"-88.4146626"
"MAYAPAN"	"CALLE CONOCIDO SN"	"TELCHAQUILLO"	"TECOH"	"20.6296289"	"-89.4604935"
"LAZARO CARDENAS"	"CALLE 19"	"CHICHIMILA"	"CHICHIMILA"	"20.6342627"	"-88.2194569"
"HUNAB CEEL"	""	"SAN ISIDRO OCHIL"	"HOMUN"	"20.6368664"	"-89.3442237"
"DAVID VIVAS ROMERO"	""	"SAN ISIDRO OCHIL"	"HOMUN"	"20.6399898"	"-89.3421453"
"DOMINGO SOLIS"	"CALLE 23-A"	"KOPOMA"	"KOPOMA"	"20.645795"	"-89.903595"
"FRANCISCO I. MADERO"	"CALLE 14"	"CHEMAX"	"CHEMAX"	"20.6473821"	"-87.9340101"
"LEYES DE REFORMA"	"CALLE 19"	"KOPOMA"	"KOPOMA"	"20.6486769"	"-89.8948725"
"JAIME NUNO"	""	"X-CALAKOOP"	"TINUM"	"20.6507559"	"-88.5266948"
"VENUSTIANO CARRANZA"	""	"X-CALAKOOP"	"TINUM"	"20.6509725"	"-88.5264316"
"VICENTE GUERRERO"	""	"TOHOPKU"	"TINUM"	"20.6549864"	"-88.4633837"
"ERMILO ABREU GOMEZ"	"CALLE 32-A 143"	"CHEMAX"	"CHEMAX"	"20.6550679"	"-87.946018"
"JUAN ESCUTIA"	"CALLE 26"	"CHEMAX"	"CHEMAX"	"20.6611515"	"-87.9415923"
"LUIS ROSADO VEGA"	"CALLE 14"	"CHEMAX"	"CHEMAX"	"20.6612067"	"-87.9289967"
"SANTIAGO BURGOS BRITO"	"CALLE 40"	"VALLADOLID"	"VALLADOLID"	"20.6724076"	"-88.2001448"
"PABLO NERUDA"	"CALLE 49 131"	"VALLADOLID"	"VALLADOLID"	"20.6785462"	"-88.1821657"
"FRANCISCO DE MONTEJO"	"CALLE 49 142 A"	"VALLADOLID"	"VALLADOLID"	"20.6802165"	"-88.1886389"
"VALLADOLID"	"CALLE 40 157"	"VALLADOLID"	"VALLADOLID"	"20.68026"	"-88.2005873"
"INSTITUTO SIGLO XXI DE VALLADOLID"	"CALLE 42-A 245"	"VALLADOLID"	"VALLADOLID"	"20.6807785"	"-88.2038691"
"SECUNDARIA SIGLO XXI"	"CALLE 44"	"VALLADOLID"	"VALLADOLID"	"20.6807785"	"-88.2038691"
"PANFILO NOVELO MARTIN"	"CALLE 78"	"VALLADOLID"	"VALLADOLID"	"20.6809946"	"-88.2008432"
"CARLOS NOVELO FERNANDEZ"	"CALLE 53 205"	"VALLADOLID"	"VALLADOLID"	"20.6817312"	"-88.2041742"
"BENITO JUAREZ GARCIA"	"CALLE 40"	"VALLADOLID"	"VALLADOLID"	"20.6843356"	"-88.2012114"
"BENITO JUAREZ GARCIA"	"CALLE 40 229"	"VALLADOLID"	"VALLADOLID"	"20.6843356"	"-88.2012114"
"FRANCISCO I. MADERO"	"CALLE 40 162"	"VALLADOLID"	"VALLADOLID"	"20.6843444"	"-88.1894445"
"RAMON A. OSORIO Y OSORIO"	"CALLE 40 216"	"VALLADOLID"	"VALLADOLID"	"20.6843444"	"-88.1894445"
"ARTEMIO ALPIZAR RUZ"	"CALLE 41-A 234"	"VALLADOLID"	"VALLADOLID"	"20.6867177"	"-88.2088536"
"ARTEMIO ALPIZAR RUZ"	"CALLE 41-A 234"	"VALLADOLID"	"VALLADOLID"	"20.6867177"	"-88.2088536"
"NAZUL"	"CALLE 40-A"	"VALLADOLID"	"VALLADOLID"	"20.6872096"	"-88.2008938"
"CONSUELO ANDRADE"	"CALLE 36 204"	"VALLADOLID"	"VALLADOLID"	"20.6881368"	"-88.1979356"
"JOSE MA ITURRALDE TRACONIS"	"CALLE 42 203"	"VALLADOLID"	"VALLADOLID"	"20.6886657"	"-88.2026377"
"DEMETRIO RIVERO TRIAY"	"CALLE 54 203"	"VALLADOLID"	"VALLADOLID"	"20.6890364"	"-88.212076"
"FRANCISCO CANTON ROSADO"	"CALLE 34 199"	"VALLADOLID"	"VALLADOLID"	"20.6898472"	"-88.2019846"
"CLUB DE LEONES 5"	"CALLE 27 157"	"VALLADOLID"	"VALLADOLID"	"20.6909133"	"-88.1817077"
"CLUB DE LEONES 2"	"CALLE 41"	"VALLADOLID"	"VALLADOLID"	"20.6909133"	"-88.1817077"
"MODELO VALLADOLID"	""	"VALLADOLID"	"VALLADOLID"	"20.691457"	"-88.174955"
"JOSE INES NOVELO"	"CALLE 26"	"VALLADOLID"	"VALLADOLID"	"20.6928578"	"-88.1915562"
"JOSE INES NOVELO"	"CALLE 26"	"VALLADOLID"	"VALLADOLID"	"20.6928578"	"-88.1915562"
"CHICHEN ITZA"	"CALLE 4"	"PISTE"	"TINUM"	"20.695957"	"-88.58536"
"DELIO MORENO CANTON"	"CALLE 39 205"	"VALLADOLID"	"VALLADOLID"	"20.6968268"	"-88.1845757"
"JACINTO CANEK"	""	"SAN FRANCISCO GRANDE"	"TINUM"	"20.6972862"	"-88.4729249"
"MIGUEL HIDALGO Y COSTILLA"	"CALLE 29 205 A"	"VALLADOLID"	"VALLADOLID"	"20.6976107"	"-88.2163543"
"ZACI"	"CALLE 40"	"VALLADOLID"	"VALLADOLID"	"20.6989837"	"-88.2022685"
"ESCUELA SECUNDARIA ZA-CI"	"CALLE 40 157"	"VALLADOLID"	"VALLADOLID"	"20.6989837"	"-88.2022685"
"JOSEFA CENTENO ROSADO"	"CALLE 27"	"VALLADOLID"	"VALLADOLID"	"20.6992691"	"-88.1973684"
"RAMON NAVARRETE ROSADO"	"CALLE 27 157 NA"	"VALLADOLID"	"VALLADOLID"	"20.6992691"	"-88.1973684"
"FERNANDO MONTES DE OCA"	""	"SAN FRANCISCO GRANDE"	"TINUM"	"20.6994118"	"-88.4725383"
"FELIPE CARRILLO PUERTO"	"CALLE 12"	"PISTE"	"TINUM"	"20.6995941"	"-88.58954"
"ANDRES QUINTANA ROO"	""	"SAN FRANCISCO GRANDE"	"TINUM"	"20.7004057"	"-88.4722124"
"ANTONIO MEDIZ BOLIO"	"CALLE 25 181"	"VALLADOLID"	"VALLADOLID"	"20.7006481"	"-88.198801"
"ANTONIO MEDIZ BOLIO"	""	"XOCEN"	"VALLADOLID"	"20.7006481"	"-88.198801"
"ESCUELA COMUNITARIA CONAFE"	""	"CHAN YOKDZONOT"	"VALLADOLID"	"20.7010455"	"-88.2196087"
"SECUNDARIA COMUNITARIA CONAFE"	""	"CHAN YOKDZONOT"	"VALLADOLID"	"20.7010455"	"-88.2196087"
"ESCUELA CONAFE"	""	"TIMAS"	"VALLADOLID"	"20.7010455"	"-88.2196087"
"JOSE MARIA ITURRALDE TRACONIS"	""	"KANXOC"	"VALLADOLID"	"20.7018882"	"-88.21305"
"JOSE MARIA ITURRALDE TRACONIS"	""	"KANXOC"	"VALLADOLID"	"20.7018882"	"-88.21305"
"NICOLAS BRAVO"	""	"SAN RAFAEL"	"MAXCANU"	"20.704444"	"-90.157222"
"RICARDO LOPEZ MENDEZ"	"CALLE 25 181"	"VALLADOLID"	"VALLADOLID"	"20.705314"	"-88.1850986"
"ANTONIO MEDIZ BOLIO"	"CALLE 62 198"	"VALLADOLID"	"VALLADOLID"	"20.7053152"	"-88.1853381"
"EMILIANO ZAPATA"	"CALLE 18"	"HUHI"	"HUHI"	"20.722527"	"-89.1616316"
"JUSTO SIERRA MENDEZ"	"CALLE 21 126"	"HUHI"	"HUHI"	"20.7244615"	"-89.1666584"
"FELIPE CARRILLO PUERTO"	"CALLE 20 99"	"HUHI"	"HUHI"	"20.7257929"	"-89.1620179"
"MANUEL MENDOZA Y MENDOZA"	NA	"POPOLA"	"VALLADOLID"	"20.7323201"	"-88.2369133"
"HUNAB KUH"	"CALLE 19 87"	"HOMUN"	"HOMUN"	"20.7378562"	"-89.2818523"
"CUAUHTEMOC"	"CALLE 14 111 A"	"CUZAMA"	"CUZAMA"	"20.7399601"	"-89.3166586"
"MIGUEL ANGEL HERCILA AVILEZ"	"CALLE 15"	"CUZAMA"	"CUZAMA"	"20.7412987"	"-89.3158588"
"LEONA VICARIO"	"CALLE 26"	"TECOH"	"TECOH"	"20.7420348"	"-89.4726018"
"FELIPE CARRILLO PUERTO"	"CALLE 24"	"TECOH"	"TECOH"	"20.7484703"	"-89.4754877"
"ARISTEO VAZQUEZ DELGADO"	"CALLE 21-A 98"	"TECOH"	"TECOH"	"20.7490953"	"-89.4739906"
"ARISTEO VAZQUEZ DELGADO"	"CALLE 21-A 98"	"TECOH"	"TECOH"	"20.7490953"	"-89.4739906"
"VICENTE GUERRERO"	"CALLE 23"	"CHOCHOLA"	"CHOCHOLA"	"20.7493969"	"-89.8302238"
"NICOLAS BRAVO"	"CALLE 20 91"	"CHOCHOLA"	"CHOCHOLA"	"20.7510538"	"-89.8302551"
"RICARDO MOLINA SOLIS"	""	"EKNAKAN"	"CUZAMA"	"20.7615545"	"-89.3675589"
"FELIPE CARRILLO PUERTO"	"CALLE 21 111"	"TINUM"	"TINUM"	"20.7672704"	"-88.3920694"
"NIÑOS HEROES"	"CALLE 22 100"	"TINUM"	"TINUM"	"20.7675355"	"-88.3917886"
"FEDERICO PASSLER"	""	"XOCEMPICH"	"DZITAS"	"20.7677438"	"-88.572264"
"MARTIRES DE CHICAGO"	""	"USPIBIL"	"CHEMAX"	"20.7688857"	"-88.0041504"
"MIGUEL HIDALGO Y COSTILLA"	"CALLE 13"	"SANAHCAT"	"SANAHCAT"	"20.7726904"	"-89.2142237"
"MIGUEL HIDALGO Y COSTILLA"	"CALLE 19 114"	"HOMUN"	"HOMUN"	"20.7726904"	"-89.2142237"
"MIGUEL HIDALGO Y COSTILLA"	"CALLE 26 135"	"HOCTUN"	"HOCTUN"	"20.7726904"	"-89.2142237"
"MIGUEL HIDALGO Y COSTILLA"	"CALLE 26 135"	"HOCTUN"	"HOCTUN"	"20.7726904"	"-89.2142237"
"ESCUELA SECUNDARIA TECNICA NUM. 46"	"CALLE 30"	"KANTUNIL"	"KANTUNIL"	"20.7847743"	"-89.1796035"
"CECILIO CHI"	"CALLE 13 56"	"TEMOZON"	"TEMOZON"	"20.8027647"	"-88.2019245"
"ERMILO ABREU GOMEZ"	"CALLE 22 89"	"ACANCEH"	"ACANCEH"	"20.8040237"	"-89.4552209"
"VICENTE GUERRERO"	"CALLE 4"	"TEMOZON"	"TEMOZON"	"20.8057614"	"-88.1952955"
"ESCUELA SECUNDARIA TECNICA NUM. 13"	"CARRETERA ACANCEH-HOMUN KILOMETRO 1"	"ACANCEH"	"ACANCEH"	"20.8107266"	"-89.4435218"
"PRIMITIVO RUBIO AVILA"	"CALLE 30 115"	"ACANCEH"	"ACANCEH"	"20.8117483"	"-89.4592978"
"SALVADOR RODRIGUEZ LOSA"	"CALLE 21"	"TIMUCUY"	"TIMUCUY"	"20.8123351"	"-89.5231203"
"PREESCOLAR COMUNITARIO"	""	"SAN ANTONIO CHUC"	"TUNKAS"	"20.8134906"	"-88.7798035"
"ESCUELA SECUNDARIA TECNICA NUM. 40"	""	"MOLAS"	"MERIDA"	"20.8150437"	"-89.6342854"
"AMPARO ROSADO"	"CALLE 14 76"	"ACANCEH"	"ACANCEH"	"20.81695"	"-89.4484248"
"AMPARO ROSADO"	"CALLE 14 76"	"ACANCEH"	"ACANCEH"	"20.81695"	"-89.4484248"
"EKNAKAN"	"CALLE 26"	"HOCABA"	"HOCABA"	"20.8173969"	"-89.2497431"
"FELIPE CARRILLO PUERTO"	"CALLE 52"	"TEKIK DE REGIL"	"TIMUCUY"	"20.8194688"	"-89.5607335"
"ALBINO J LOPE"	"CALLE 23 116"	"ACANCEH"	"ACANCEH"	"20.8206298"	"-89.457132"
"ESCUELA SECUNDARIA TECNICA NUM. 61"	"CALLE 16 60"	"SAN JOSE TZAL"	"MERIDA"	"20.8208247"	"-89.6577666"
"EMILIANO ZAPATA"	"CALLE 23"	"SAN JOSE TZAL"	"MERIDA"	"20.8218546"	"-89.6565649"
"SALVADOR ALVARADO"	"CALLE 18"	"SAN JOSE TZAL"	"MERIDA"	"20.8222246"	"-89.6599481"
"SALVADOR ALVARADO"	""	"SACCHICH"	"ACANCEH"	"20.8313791"	"-89.4409846"
"PREESCOLAR COMUNITARIO"	""	"SACCHICH"	"ACANCEH"	"20.8314192"	"-89.4384527"
"IMPERIO MAYA"	"CALLE 31"	"DZITAS"	"DZITAS"	"20.8373714"	"-88.5259821"
"SALVADOR ALVARADO"	"CALLE 30 106"	"SEYE"	"SEYE"	"20.8375577"	"-89.3715175"
"SILVESTRE EROSA PENICHE"	"CALLE 23 99"	"DZITAS"	"DZITAS"	"20.8405838"	"-88.5275098"
"ADOLFO LOPEZ MATEOS"	"CALLE 25 86"	"DZITAS"	"DZITAS"	"20.8408004"	"-88.5364039"
"RAMON LOPEZ VELARDE"	"CALLE 38 99 A"	"DZITAS"	"DZITAS"	"20.841508"	"-88.5332323"
"ESCUELA SECUNDARIA TECNICA NUM. 48"	""	"SAN ANTONIO TEDZIDZ"	"SAMAHIL"	"20.8419627"	"-89.974916"
"BENITO JUAREZ GARCIA"	""	"HUNUKU"	"TEMOZON"	"20.851168"	"-88.0903782"
"BENITO JUAREZ GARCIA"	""	"HUNUKU"	"TEMOZON"	"20.851168"	"-88.0903782"
"LAZARO CARDENAS DEL RIO"	""	"XCUCUL SUR"	"UMAN"	"20.855336"	"-89.6714113"
"CUAUHTEMOC"	"CALLE 21 121"	"RIO LAGARTOS"	"RIO LAGARTOS"	"20.8562653"	"-90.3994641"
"ESTADO DE VERACRUZ"	""	"KUXEB"	"CHEMAX"	"20.8566002"	"-87.8701878"
"EMILIANO ZAPATA"	"CALLE 21"	"X-CAN"	"CHEMAX"	"20.8589236"	"-87.6684516"
"EMILIANO ZAPATA"	""	"X-CAN"	"CHEMAX"	"20.8589236"	"-87.6684516"
"EMILIANO ZAPATA"	""	"SAN PEDRO CHIMAY"	"MERIDA"	"20.8616954"	"-89.5800928"
"GUADALUPE VICTORIA"	"CALLE 27"	"HOCTUN"	"HOCTUN"	"20.8627013"	"-89.1998771"
"NACHI COCOM"	""	"SAN PEDRO CHIMAY"	"MERIDA"	"20.863994"	"-89.5797258"
"SECUNDARIA COMUNITARIA"	""	"X'TUT"	"TEMOZON"	"20.8652629"	"-87.9657235"
"PABLO CANUL"	""	"SUBINCANCAB"	"TIMUCUY"	"20.868849"	"-89.5317638"
"NIÑOS HEROES"	""	"OXHOLON"	"UMAN"	"20.8735545"	"-89.807006"
"NICASIO BARRERA GAMBOA"	"CALLE 18 102"	"TAHMEK"	"TAHMEK"	"20.87492"	"-89.2533974"
"DELIO MORENO CANTON"	"SN"	"OXHOLON"	"UMAN"	"20.8750823"	"-89.8059888"
"WILLIAM MANUEL QUINTAL MONTERO"	"CALLE 27"	"UMAN"	"UMAN"	"20.8750847"	"-89.7346185"
"RUBEN DARIO HERRERA"	"CALLE 27"	"UMAN"	"UMAN"	"20.876496"	"-89.7424147"
"JOSE ENRIQUE RUIZ CARRILLO"	"CALLE 27"	"UMAN"	"UMAN"	"20.876527"	"-89.742399"
"FERNANDO MONTES DE OCA"	"CALLE 26 117"	"UMAN"	"UMAN"	"20.8772998"	"-89.7537289"
"LIC.  NICOLAS MOGUEL"	"CALLE 16-A 18"	"UMAN"	"UMAN"	"20.8787023"	"-89.7450484"
"EL NIÑO ARTILLERO"	"CALLE 23"	"UMAN"	"UMAN"	"20.8798777"	"-89.746203"
"MUNDO MAYA"	""	"SANTA CRUZ PALOMEQUE"	"MERIDA"	"20.880105"	"-89.652858"
"MANUEL CEPEDA PERAZA"	"CALLE 20-A 109"	"UMAN"	"UMAN"	"20.8801709"	"-89.7490075"
"CARLOS P. MOLAS GAMBOA"	"CALLE 21 105"	"UMAN"	"UMAN"	"20.8814897"	"-89.7486787"
"SALVADOR ALVARADO"	"CALLE 21 105 NA"	"UMAN"	"UMAN"	"20.8815003"	"-89.7487665"
"AGUSTIN MELGAR"	"CALLE 21 97 A"	"UMAN"	"UMAN"	"20.8821948"	"-89.7475521"
"NIÑOS HEROES"	"CALLE 19 101"	"UMAN"	"UMAN"	"20.8827436"	"-89.7484302"
"1 DE MAYO"	""	"TICIMUL"	"UMAN"	"20.8827446"	"-89.6805377"
"KIN PAA'L"	"CALLE 19 119"	"UMAN"	"UMAN"	"20.8828799"	"-89.7509937"
"ERMILO ABREU GOMEZ"	"CALLE 21 83"	"SAMAHIL"	"SAMAHIL"	"20.8832256"	"-89.8882108"
"KIN PAAL"	"CALLE 22 97 B"	"UMAN"	"UMAN"	"20.8833404"	"-89.7502544"
"COLEGIO KIN PAAL"	"CALLE 22 97 B"	"UMAN"	"UMAN"	"20.8833404"	"-89.7502544"
"SEBASTIAN PAVIA VILLANUEVA"	"CALLE 28"	"UMAN"	"UMAN"	"20.886543"	"-89.758063"
"CUAUHTEMOC"	""	"KANTIRIX"	"TEPAKAN"	"20.8866584"	"-89.0000053"
"NARCISO MENDOZA"	"CALLE 16"	"UMAN"	"UMAN"	"20.8870639"	"-89.7391595"
"MEXICO"	""	"UMAN"	"UMAN"	"20.8878393"	"-89.7480635"
"JOSEFA ORTIZ DE DOMINGUEZ"	"CALLE 16-B 96"	"UMAN"	"UMAN"	"20.8879285"	"-89.7438996"
"JOSE C PENICHE FAJARDO"	""	"TICOPO"	"ACANCEH"	"20.8884366"	"-89.43927"
"SALVADOR ALVARADO"	""	"CUAUHTEMOC"	"IZAMAL"	"20.8887185"	"-89.000353"
"RAQUEL DZIB CICERO"	"CALLE 17"	"UMAN"	"UMAN"	"20.8895479"	"-89.7381795"
"RAQUEL DZIB CICERO"	"CALLE 17"	"UMAN"	"UMAN"	"20.8895479"	"-89.7381795"
"ROCIO DEL ALBA RUIZ CARRILLO"	"CALLE 88"	"MERIDA"	"MERIDA"	"20.8905005"	"-89.6529885"
"BRIGIDA ALFARO"	"CALLE 24 150"	"UMAN"	"UMAN"	"20.8922543"	"-89.7330139"
"MTRA. AMELGA MARIA MOGUEL AGUILAR"	"CALLE 187-G"	"MERIDA"	"MERIDA"	"20.8926603"	"-89.6704791"
"PASTOR RAMIREZ COELLO"	"CALLE 22 159 NA"	"UMAN"	"UMAN"	"20.8929832"	"-89.7317033"
"MANUEL BERZUNZA"	"CALLE 19 100"	"DZUNUNCAN"	"MERIDA"	"20.8941536"	"-89.6670802"
"CHAK PEEPEN"	"CALLE 64"	"MERIDA"	"MERIDA"	"20.8953007"	"-89.6404342"
"ESTADO DE YUCATAN"	"CALLE 181"	"MERIDA"	"MERIDA"	"20.8986478"	"-89.6509493"
"FRANCISCO VILLA"	"CALLE 169"	"MERIDA"	"MERIDA"	"20.9086127"	"-89.6438718"
"RAMON NAVARRETE ROSADO"	"CALLE 20"	"KINCHIL"	"KINCHIL"	"20.9110308"	"-89.9485066"
"JOSE VASCONCELOS"	""	"UMAN"	"UMAN"	"20.9138157"	"-89.6922218"
"LUIS DONALDO COLOSIO MURRIETA"	"CALLE 56"	"MERIDA"	"MERIDA"	"20.9140945"	"-89.6250828"
"INSTITUTO LOL-BE"	"CALLE 29 DIAGONAL 399"	"UMAN"	"UMAN"	"20.9149605"	"-89.6985864"
"INSTITUTO LOL-BE"	"CALLE 29 DIAGONAL 401"	"UMAN"	"UMAN"	"20.9149605"	"-89.6985864"
"LOS MAYAS"	""	"XTEPEN"	"UMAN"	"20.9155221"	"-89.6970807"
"MAYEL NICTE"	"CALLE 159"	"MERIDA"	"MERIDA"	"20.9158643"	"-89.6498078"
"PINOCHO"	"CALLE 27 DIAGONAL 352"	"UMAN"	"UMAN"	"20.915904"	"-89.6961171"
"JULIO CORTAZAR"	"CALLE 27 DIAGONAL 354"	"UMAN"	"UMAN"	"20.915904"	"-89.6961171"
"RAQUEL DZIB CICERO"	"CALLE 64 322"	"MERIDA"	"MERIDA"	"20.9163159"	"-89.6355589"
"U NAJIL XOOK"	"CALLE 147 890"	"MERIDA"	"MERIDA"	"20.9164825"	"-89.6163829"
"ESCUELA SECUNDARIA TECNICA NUM. 75"	"CALLE 64-A"	"MERIDA"	"MERIDA"	"20.9164985"	"-89.6252542"
"RAFAEL CHAZARO PEREZ"	"CALLE 19"	"KINCHIL"	"KINCHIL"	"20.9174271"	"-89.9474931"
"RAFAEL CHAZARO PEREZ"	"CALLE 19 NA"	"KINCHIL"	"KINCHIL"	"20.9174271"	"-89.9474931"
"REMIGIO AGUILAR SOSA"	"CALLE 145"	"MERIDA"	"MERIDA"	"20.9196293"	"-89.6189805"
"JUAN PEDRO PACHECO TORRES"	"CALLE 145"	"MERIDA"	"MERIDA"	"20.9196368"	"-89.6187669"
"GABRIEL GARCIA MARQUEZ"	"CALLE 45-A 393"	"MERIDA"	"MERIDA"	"20.9196817"	"-89.6738329"
"PLUTARCO ELIAS CALLES"	"CALLE 15-A 557"	"UMAN"	"UMAN"	"20.9211347"	"-89.7119092"
"JUAN DE LA BARRERA"	"CALLE 15-D 416"	"UMAN"	"UMAN"	"20.9215943"	"-89.7126116"
"MIGUEL ANGEL SALCEDO INZUNZA"	"CALLE 77"	"KANASIN"	"KANASIN"	"20.9219718"	"-89.5785186"
"MIGUEL ANGEL SALCEDO INZUNZA"	"CALLE 77"	"KANASIN"	"KANASIN"	"20.9219718"	"-89.5785186"
"YOLANDA NOEMI CARRILLO PIÑA"	"CALLE 46-B"	"MERIDA"	"MERIDA"	"20.9230037"	"-89.6144529"
"ESCUELA SECUNDARIA TECNICA NUM. 59"	"CALLE 94"	"MERIDA"	"MERIDA"	"20.9230777"	"-89.6496552"
"ENRIQUE LAUBSCHER"	"CALLE 48"	"MERIDA"	"MERIDA"	"20.9231703"	"-89.6100161"
"BENITO JUAREZ GARCIA"	"CALLE 133 455"	"MERIDA"	"MERIDA"	"20.923237"	"-89.6281724"
"BENITO JUAREZ GARCIA"	""	"SABACCHE"	"TECOH"	"20.923237"	"-89.6281724"
"NIÑOS HEROES"	"CALLE 129 574"	"MERIDA"	"MERIDA"	"20.9232469"	"-89.627933"
"NIÑOS HEROES"	"CALLE 133 455"	"MERIDA"	"MERIDA"	"20.9232469"	"-89.627933"
"EUSTAQUIO AVILA SOSA"	"CALLE 26"	"IZAMAL"	"IZAMAL"	"20.9232483"	"-89.017939"
"IRMA OJEDA DE MONFORTE"	"CALLE 46-A"	"MERIDA"	"MERIDA"	"20.9233219"	"-89.6150349"
"JONAS SALK"	"CALLE 56"	"KANASIN"	"KANASIN"	"20.9241375"	"-89.5776073"
"GUSTAVO DIAZ ORDAZ"	"CALLE 131"	"MERIDA"	"MERIDA"	"20.9241868"	"-89.6281462"
"XAVIER VILLAURRUTIA"	"CALLE 13 86"	"KANASIN"	"KANASIN"	"20.9243738"	"-89.5514531"
"EMILIANO ZAPATA"	"CALLE 92"	"MERIDA"	"MERIDA"	"20.9248699"	"-89.6483148"
"CUAUHTEMOC"	"CALLE 80 563"	"MERIDA"	"MERIDA"	"20.925071"	"-89.5975036"
"EDUARDO URZAIZ RODRIGUEZ"	"CALLE 66"	"KANASIN"	"KANASIN"	"20.9253023"	"-89.5876673"
"TIBURCIO MENA"	"CALLE 24 243"	"IZAMAL"	"IZAMAL"	"20.9257331"	"-89.0147516"
"TIBURCIO MENA"	"CALLE 26 337"	"IZAMAL"	"IZAMAL"	"20.9257331"	"-89.0147516"
"ELVIA CARRILLO PUERTO"	"CALLE 10 128"	"MERIDA"	"MERIDA"	"20.9258635"	"-89.6727693"
"MIGUEL HIDALGO Y COSTILLA"	"CALLE 10 128"	"MERIDA"	"MERIDA"	"20.9258936"	"-89.6728221"
"IGNACIO ZARAGOZA"	""	"HUBILA"	"TIXKOKOB"	"20.926064"	"-89.3342875"
"PEDRO MARIA ANAYA"	"CALLE 131"	"MERIDA"	"MERIDA"	"20.9265655"	"-89.6353771"
"BERTA MARIA GONZALEZ RODRIGUEZ"	"CALLE 29"	"KANASIN"	"KANASIN"	"20.9266144"	"-89.5623745"
"LAZARO CARDENAS DEL RIO"	"CALLE 129 639"	"MERIDA"	"MERIDA"	"20.9270858"	"-89.6353211"
"PESTALOZZI"	"CALLE 29 198 A"	"KANASIN"	"KANASIN"	"20.9271772"	"-89.562872"
"PAPALOTES"	"CALLE 46-B 796"	"MERIDA"	"MERIDA"	"20.9271819"	"-89.6151244"
"JACINTO PAT"	"CALLE 29"	"KANASIN"	"KANASIN"	"20.9271986"	"-89.5621887"
"GASPAR ANTONIO XIU"	"CALLE 133 671"	"MERIDA"	"MERIDA"	"20.9274788"	"-89.6457901"
"OCTAVIO PAZ"	"CALLE 17"	"KANASIN"	"KANASIN"	"20.9283331"	"-89.5742717"
"VICENTE MARIA VELAZQUEZ"	"CALLE 129 639"	"MERIDA"	"MERIDA"	"20.9283332"	"-89.6398138"
"JOSE MARIA MORELOS"	"CALLE 129"	"MERIDA"	"MERIDA"	"20.9288276"	"-89.6429118"
"KANIC"	"CALLE 19-C 174"	"KANASIN"	"KANASIN"	"20.928844"	"-89.5498991"
"SERAPIO RENDON"	"CALLE 46"	"MERIDA"	"MERIDA"	"20.9288851"	"-89.6130312"
"LUIS DONALDO COLOSIO MURRIETA"	"CALLE 35"	"KANASIN"	"KANASIN"	"20.9289891"	"-89.5744055"
"PLAN DE IGUALA"	"CALLE 42"	"MERIDA"	"MERIDA"	"20.9290202"	"-89.6081774"
"LAURENCO FILHO"	"CALLE 127-B 254"	"MERIDA"	"MERIDA"	"20.9291689"	"-89.6166234"
"AUGUSTO MOLINA RAMOS"	"CALLE 125"	"MERIDA"	"MERIDA"	"20.9293822"	"-89.6234115"
"CONSUELO ZAVALA"	"CALLE 125 897"	"MERIDA"	"MERIDA"	"20.929654"	"-89.6205132"
"LEANDRO VALLE"	"CALLE 23 153"	"KANASIN"	"KANASIN"	"20.9296735"	"-89.5672175"
"GENERAL LEANDRO VALLE MARTINEZ"	"CALLE 30"	"KANASIN"	"KANASIN"	"20.9296735"	"-89.5672175"
"GENERAL LEANDRO VALLE MARTINEZ"	"CALLE 30"	"KANASIN"	"KANASIN"	"20.9296735"	"-89.5672175"
"SERAPIO RENDON"	"CALLE 127-B 212"	"MERIDA"	"MERIDA"	"20.9298505"	"-89.6147855"
"18 DE MARZO"	"CALLE 59"	"KANASIN"	"KANASIN"	"20.9299919"	"-89.5884096"
"NIÑOS HEROES"	"CALLE 25"	"MERIDA"	"MERIDA"	"20.9311377"	"-89.6687036"
"JARDIN DE NIÑOS ALINA"	"CALLE 52 867"	"MERIDA"	"MERIDA"	"20.9311921"	"-89.6231012"
"CENTRO EDUCATIVO ABC"	"CALLE 50 547"	"KANASIN"	"KANASIN"	"20.9317418"	"-89.5851873"
"GALILEO GALILEI"	"CALLE 25 101"	"KANASIN"	"KANASIN"	"20.9324486"	"-89.5584047"
"PRIMAVERA FELIZ"	"CALLE 21 352 E"	"MERIDA"	"MERIDA"	"20.932461"	"-89.6086881"
"PRIMAVERA FELIZ"	"CALLE 21 352 E"	"MERIDA"	"MERIDA"	"20.932461"	"-89.6086881"
"MARGARITA MAZA DE JUAREZ"	"CALLE 28"	"MERIDA"	"MERIDA"	"20.9325228"	"-89.6675821"
"MANUEL CRECENCIO REJON"	"CALLE 28-A"	"MERIDA"	"MERIDA"	"20.9326127"	"-89.6670583"
"MATILDE CARDENAS ALVAREZ"	"CALLE 29-A"	"KANASIN"	"KANASIN"	"20.932757"	"-89.5655773"
"EMILIANO ZAPATA"	"CALLE 17-A"	"KANASIN"	"KANASIN"	"20.9328023"	"-89.5498783"
"VICTOR CERVERA PACHECO"	"CALLE 17-A"	"KANASIN"	"KANASIN"	"20.9331858"	"-89.5509084"
"RICARDO FLORES MAGON"	"CALLE 23"	"KIMBILA"	"IZAMAL"	"20.9335052"	"-89.1243107"
"CONSUELO ZAVALA CASTILLO"	"CALLE 37 315"	"KANASIN"	"KANASIN"	"20.9335262"	"-89.566786"
"AQUILES SERDAN"	"CALLE 31 261"	"IZAMAL"	"IZAMAL"	"20.9335489"	"-89.0032825"
"MARIA VILLAFAÑA DE MENDEZ"	"CALLE 31 290"	"IZAMAL"	"IZAMAL"	"20.9335489"	"-89.0032825"
"CARMEN GOMEZ RUL"	"CALLE 117"	"MERIDA"	"MERIDA"	"20.9335822"	"-89.6139184"
"ARTEMIO ALPIZAR RUZ"	"CALLE 20 51"	"KIMBILA"	"IZAMAL"	"20.9337579"	"-89.1253171"
"LOS PEQUEÑOS TRAVIESOS"	"CALLE 42 851 C"	"MERIDA"	"MERIDA"	"20.9337827"	"-89.6094941"
"CRESCENCIO CARRILLO Y ANCONA"	"CALLE 38 307"	"IZAMAL"	"IZAMAL"	"20.933864"	"-89.0224006"
"CRESCENCIO CARRILLO Y ANCONA"	"CALLE 38 307"	"IZAMAL"	"IZAMAL"	"20.933864"	"-89.0224006"
"BENITO JUAREZ"	"CALLE 21 215"	"MERIDA"	"MERIDA"	"20.9339485"	"-89.6722153"
"OMAR GUADALUPE LARA NOVELO"	"CALLE 37 315"	"KANASIN"	"KANASIN"	"20.9339913"	"-89.5662406"
"CONSTITUCION DE 1857"	""	"TEXAN DE PALOMEQUE"	"HUNUCMA"	"20.9343609"	"-89.8343713"
"DOMINGA CANTO PASTRANA"	"CALLE 39-A 328"	"MERIDA"	"MERIDA"	"20.9344051"	"-89.5983639"
"GUADALUPE VICTORIA"	"CALLE 30 287"	"IZAMAL"	"IZAMAL"	"20.934548"	"-89.018234"
"MARIA CANTO DE ROCHE"	"CALLE 36 307"	"IZAMAL"	"IZAMAL"	"20.934548"	"-89.018234"
"JOSE VASCONCELOS"	"CALLE 115 NA"	"MERIDA"	"MERIDA"	"20.9345677"	"-89.6155174"
"JOSE VASCONCELOS"	"CALLE 60 381 A"	"MERIDA"	"MERIDA"	"20.9345677"	"-89.6155174"
"EL NIÑO CAMPESINO"	"CALLE 19 99"	"KANASIN"	"KANASIN"	"20.9345711"	"-89.5564514"
"MARIA CURIE"	"CALLE 115"	"MERIDA"	"MERIDA"	"20.9350317"	"-89.6234633"
"LEYES DE REFORMA"	""	"TEXAN DE PALOMEQUE"	"HUNUCMA"	"20.935172"	"-89.831616"
"LEYES DE REFORMA"	""	"TEXAN DE PALOMEQUE"	"HUNUCMA"	"20.935172"	"-89.831616"
"JUSTO SIERRA MENDEZ"	"CALLE 115 520"	"MERIDA"	"MERIDA"	"20.9358328"	"-89.6321887"
"JUSTO SIERRA MENDEZ"	"CALLE 115 520"	"MERIDA"	"MERIDA"	"20.9358328"	"-89.6321887"
"JUSTO SIERRA MENDEZ"	"CALLE 14 301"	"MERIDA"	"MERIDA"	"20.9358328"	"-89.6321887"
"JUSTO SIERRA MENDEZ"	""	"SOTUTA DE PEON"	"TECOH"	"20.9358328"	"-89.6321887"
"SALVADOR DALI"	"CALLE 50 751 B"	"MERIDA"	"MERIDA"	"20.9360688"	"-89.6199003"
"SALVADOR ALVARADO"	"CALLE 39-A"	"MERIDA"	"MERIDA"	"20.9363737"	"-89.5985621"
"PRESIDENTE CARDENAS"	"CALLE 21 212 A"	"KANASIN"	"KANASIN"	"20.9365645"	"-89.5698447"
"ALFONSO CASO"	"CALLE 64 709 A"	"MERIDA"	"MERIDA"	"20.9368204"	"-89.6327546"
"ALFONSO CASO"	"CALLE 64 709 A"	"MERIDA"	"MERIDA"	"20.9368204"	"-89.6327546"
"EL MUNDO DE LOS NIÑOS"	"CALLE 64 707 A"	"MERIDA"	"MERIDA"	"20.9370508"	"-89.6327368"
"VASCO DE QUIROGA"	"CALLE 60 776"	"MERIDA"	"MERIDA"	"20.9372234"	"-89.6287915"
"KINICH KAKMO"	"CALLE 35 309"	"IZAMAL"	"IZAMAL"	"20.9372924"	"-89.0165331"
"IGNACIO RAMIREZ LOPEZ"	"CALLE 20"	"MERIDA"	"MERIDA"	"20.9374824"	"-89.6095949"
"PEDRO PABLO ECHEVERRIA"	"CALLE 49"	"MERIDA"	"MERIDA"	"20.9375359"	"-89.5921426"
"VASCO DE QUIROGA"	"CALLE 60 774"	"MERIDA"	"MERIDA"	"20.9376293"	"-89.6285998"
"VASCO DE QUIROGA"	"CALLE 60 774"	"MERIDA"	"MERIDA"	"20.9376293"	"-89.6285998"
"COLEGIO JUAN PABLO II"	"CALLE 54 460"	"KANASIN"	"KANASIN"	"20.937686"	"-89.5932356"
"LIBORIO PEREZ ENCALADA"	"CALLE 73-B 245"	"KANASIN"	"KANASIN"	"20.9377003"	"-89.5787996"
"LIBORIO PEREZ ENCALADA"	"CALLE 84 129"	"PROGRESO"	"PROGRESO"	"20.9377003"	"-89.5787996"
"OLGA MANZANO"	"CALLE 44 500"	"MERIDA"	"MERIDA"	"20.9379207"	"-89.5886902"
"FRANCISCO GABILONDO SOLER"	"CALLE 50"	"MERIDA"	"MERIDA"	"20.938118"	"-89.5919615"
"INSTITUTO FROEBEL"	"CALLE 29 310"	"MERIDA"	"MERIDA"	"20.9382699"	"-89.6010307"
"FEDERICO FROEBEL"	"CALLE 25 203"	"MERIDA"	"MERIDA"	"20.9383867"	"-89.6009889"
"ANGELA GONZALEZ DE MENENDEZ"	"CALLE 109-F"	"MERIDA"	"MERIDA"	"20.9385902"	"-89.6471168"
"X'OCEN"	"CALLE 73"	"KANASIN"	"KANASIN"	"20.9386162"	"-89.5783574"
"JOSE VASCONCELOS"	"CALLE 87"	"MERIDA"	"MERIDA"	"20.93909"	"-89.5867057"
"JESUS MANUEL IBARRA PEIRO"	"CALLE 87 370"	"MERIDA"	"MERIDA"	"20.9392315"	"-89.5870407"
"FERNANDO BARBACHANO PEON"	"CALLE 34"	"MERIDA"	"MERIDA"	"20.9399244"	"-89.6069286"
"SERAPIO BAQUEIRO PREVE"	"CALLE 60 765"	"MERIDA"	"MERIDA"	"20.9401618"	"-89.6287121"
"LIRA DE LA NIÑEZ"	"CALLE 30 69"	"KANASIN"	"KANASIN"	"20.9402943"	"-89.5639656"
"ESCUELA SECUNDARIA TECNICA NUM. 71"	"CALLE 20 54"	"KANASIN"	"KANASIN"	"20.9410744"	"-89.5545721"
"ESCUELA SECUNDARIA TECNICA NUM. 81"	"CALLE 20 54"	"KANASIN"	"KANASIN"	"20.9410744"	"-89.5545721"
"ESCUELA SECUNDARIA TECNICA NUM. 7"	"CARRETERA IZAMAL-HOCTUN KILOMETRO 1 NA"	"IZAMAL"	"IZAMAL"	"20.941224"	"-89.0190348"
"ESCUELA SECUNDARIA TECNICA NUM. 66"	"CALLE 46 650 A"	"MERIDA"	"MERIDA"	"20.9413812"	"-89.6133984"
"ESCUELA SECUNDARIA TECNICA NUM. 80"	"CALLE 46 650 A"	"MERIDA"	"MERIDA"	"20.9413812"	"-89.6133984"
"JOSE MARIA MORELOS Y PAVON"	"CALLE 15 PONIENTE 109"	"MERIDA"	"MERIDA"	"20.941609"	"-89.6000834"
"JOSE MARIA MORELOS Y PAVON"	"CALLE 15 PONIENTE 109"	"MERIDA"	"MERIDA"	"20.941609"	"-89.6000834"
"CENTRO DE EDUCACION INTEGRAL BINET"	"CALLE 85 448"	"MERIDA"	"MERIDA"	"20.9419042"	"-89.5901518"
"CENTRO DE EDUCACION INTEGRAL BINET"	"CALLE 85 488"	"MERIDA"	"MERIDA"	"20.9419042"	"-89.5901518"
"MI MUNDO MARAVILLOSO"	"CALLE 40 592"	"MERIDA"	"MERIDA"	"20.9425714"	"-89.6104064"
"LORENZO FILHO"	"CALLE 107"	"MERIDA"	"MERIDA"	"20.942665"	"-89.6127537"
"MORELOS"	"CALLE 15 201"	"MERIDA"	"MERIDA"	"20.9429313"	"-89.598636"
"EJERCITO NACIONAL"	"CALLE 66 757 B"	"MERIDA"	"MERIDA"	"20.9431951"	"-89.6412003"
"GONZALO NAVARRO BAEZ"	"CALLE 14"	"MERIDA"	"MERIDA"	"20.9434146"	"-89.6696515"
"ANTONIO MEDIZ BOLIO"	"CALLE 99 465"	"MERIDA"	"MERIDA"	"20.9434229"	"-89.6231163"
"FRANCISCO GABILONDO SOLER"	"CALLE 71 304"	"MERIDA"	"MERIDA"	"20.9438352"	"-89.5827535"
"TIERRA Y LIBERTAD"	"CALLE 15"	"IZAMAL"	"IZAMAL"	"20.944019"	"-89.0165039"
"AMERICA"	""	"KANASIN"	"KANASIN"	"20.9441486"	"-89.5639119"
"VENUSTIANO CARRANZA"	"CALLE 10"	"MERIDA"	"MERIDA"	"20.9443224"	"-89.5879607"
"CENTRO EDUCATIVO COLITA DE ALGODON"	"CALLE 97 474 A"	"MERIDA"	"MERIDA"	"20.9443997"	"-89.6239679"
"MAFALDA"	"CALLE 1 SUR 401"	"MERIDA"	"MERIDA"	"20.9447135"	"-89.5999106"
"CENTRO EDUCATIVO PARTENON"	"CALLE 3 NORTE 100"	"MERIDA"	"MERIDA"	"20.9447172"	"-89.6020655"
"PREESCOLAR COMUNITARIO"	""	"TIXCUYTUN"	"MERIDA"	"20.9448093"	"-89.7140246"
"COLEGIO KUKULCAN"	"CALLE 28 410"	"MERIDA"	"MERIDA"	"20.944887"	"-89.598552"
"COLEGIO KUKULCAN"	"CALLE 28 410"	"MERIDA"	"MERIDA"	"20.944887"	"-89.598552"
"DELIO MORENO CANTON"	"CALLE 64-H 621 B"	"MERIDA"	"MERIDA"	"20.9448923"	"-89.6324237"
"EL SOMBRERITO"	"CALLE 95 499 S"	"MERIDA"	"MERIDA"	"20.9448995"	"-89.6246476"
"GUARDERIA PARTICIPATIVA CAMARA DE COMERCIO DE MERIDA"	"CALLE 97-D 710"	"MERIDA"	"MERIDA"	"20.9454221"	"-89.646908"
"JUAN ESCUTIA"	""	"OXCUM"	"UMAN"	"20.9454735"	"-89.7643686"
"FRANCISCO J. MUJICA"	""	"OXCUM"	"UMAN"	"20.9459626"	"-89.7647766"
"LUIS G MONZON"	"CALLE 93 501 J"	"MERIDA"	"MERIDA"	"20.9461251"	"-89.6287286"
"VENUSTIANO CARRANZA"	"CALLE 93 505 A"	"MERIDA"	"MERIDA"	"20.9461875"	"-89.6292484"
"CENTRO EDUCATIVO DESPERTARES"	"CALLE 81 638"	"MERIDA"	"MERIDA"	"20.946337"	"-89.6959146"
"CENTRO EDUCATIVO MUNDO HISPANO"	"CALLE 69 338"	"MERIDA"	"MERIDA"	"20.9464411"	"-89.5867025"
"VICENTE GUERRERO"	"CALLE 81-A"	"MERIDA"	"MERIDA"	"20.9466793"	"-89.6939313"
"KUKULCAN"	"CALLE 24"	"MERIDA"	"MERIDA"	"20.9467178"	"-89.5970802"
"GERONIMO BAQUEIRO FOSTER"	"AVENIDA UNIVERSIDAD PEDAGOGICA 565"	"MERIDA"	"MERIDA"	"20.9468049"	"-89.5834617"
"COLEGIO REGIONAL DE MEXICO"	"CALLE 81"	"MERIDA"	"MERIDA"	"20.9468116"	"-89.6967405"
"COLEGIO REGIONAL DE MEXICO"	"CALLE 81"	"MERIDA"	"MERIDA"	"20.9468116"	"-89.6967405"
"COLEGIO REGIONAL DE MEXICO-UNIDAD LA JOYA"	"CALLE 81"	"MERIDA"	"MERIDA"	"20.9468116"	"-89.6967405"
"JOSE C PALMA"	"CALLE 95 373"	"MERIDA"	"MERIDA"	"20.9469801"	"-89.6169171"
"JOAQUIN PEON AZNAR"	"CALLE 60 718"	"MERIDA"	"MERIDA"	"20.9470231"	"-89.627684"
"JOAQUIN PEON AZNAR"	"CALLE 60 718"	"MERIDA"	"MERIDA"	"20.9470231"	"-89.627684"
"JOAQUIN PEON AZNAR"	"CALLE 60 718"	"MERIDA"	"MERIDA"	"20.9470231"	"-89.627684"
"JOSE ESQUIVEL PREN"	"CALLE 108"	"MERIDA"	"MERIDA"	"20.9470889"	"-89.6558243"
"MELCHOR OCAMPO"	"CALLE 91 501"	"MERIDA"	"MERIDA"	"20.9472994"	"-89.6262496"
"JUSTO SIERRA MENDEZ"	"CALLE 54 656"	"MERIDA"	"MERIDA"	"20.9475034"	"-89.6231741"
"AMPARO CARRILLO DE BUENFIL"	"CALLE 38 477"	"MERIDA"	"MERIDA"	"20.9475744"	"-89.6273724"
"AMPARO CARRILLO DE BUENFIL"	"CALLE 60 714 C"	"MERIDA"	"MERIDA"	"20.9475744"	"-89.6273724"
"RAQUEL DZIB CICERO"	"CALLE 28"	"MERIDA"	"MERIDA"	"20.9476833"	"-89.5865833"
"RAQUEL DZIB CICERO"	"CALLE 29-B 276"	"MERIDA"	"MERIDA"	"20.9476833"	"-89.5865833"
"JACINTO UC DE LOS SANTOS"	"CALLE 96 774"	"MERIDA"	"MERIDA"	"20.9479176"	"-89.6444923"
"MANUEL VAZQUEZ FARFAN"	"CALLE 93 328"	"MERIDA"	"MERIDA"	"20.9483851"	"-89.6163924"
"PABLO BOLIO PONCE"	"CALLE 11"	"CITILCUM"	"IZAMAL"	"20.9485984"	"-89.1192383"
"LINA LOPEZ DE ESQUIVEL"	"CALLE 16 310"	"MERIDA"	"MERIDA"	"20.9490634"	"-89.5952076"
"MIGUEL CERVANTES SAAVEDRA"	"CALLE 108"	"MERIDA"	"MERIDA"	"20.9491951"	"-89.6605956"
"IRENE DUCH GARY"	"CALLE 42"	"MERIDA"	"MERIDA"	"20.9494074"	"-89.6947552"
"CARLOS FUENTES"	"CALLE 42"	"MERIDA"	"MERIDA"	"20.94955"	"-89.694653"
"MARIA MONTESSORI"	""	"KANASIN"	"KANASIN"	"20.9498302"	"-89.5533046"
"INSTITUTO 12 DE OCTUBRE"	"CALLE 87 487 K"	"MERIDA"	"MERIDA"	"20.9501536"	"-89.6214095"
"PEQUEÑAS GENERACIONES"	"CALLE 69 318"	"MERIDA"	"MERIDA"	"20.9502663"	"-89.5930666"
"ARBOLEDA"	"CALLE 89-A 491 J-K"	"MERIDA"	"MERIDA"	"20.9503078"	"-89.6282346"
"SANTOS DEGOLLADO"	"CALLE 42 600 A"	"MERIDA"	"MERIDA"	"20.9505754"	"-89.6145385"
"DIANA LAURA RIOJAS DE COLOSIO"	"CALLE 4-D"	"MERIDA"	"MERIDA"	"20.9507917"	"-89.5737819"
"SALVADOR ALVARADO"	""	"TIXCACAL"	"MERIDA"	"20.950872"	"-89.6532558"
"CUAUHTEMOC"	"CALLE 25"	"KANASIN"	"KANASIN"	"20.9509537"	"-89.5562008"
"MANUEL SALES CEPEDA"	"CALLE 83 464"	"MERIDA"	"MERIDA"	"20.9511136"	"-89.6157638"
"MAURO LOPEZ SOSA"	"CALLE 96 675"	"MERIDA"	"MERIDA"	"20.9511249"	"-89.6495875"
"OMAR GUADALUPE LARA NOVELO"	"CALLE 34 NA"	"MERIDA"	"MERIDA"	"20.9514577"	"-89.6895105"
"CARLOS CARRILLO ALONZO"	"CALLE 21"	"MERIDA"	"MERIDA"	"20.951481"	"-89.5739433"
"PAPAGAYITO"	"CALLE 77-A 483"	"MERIDA"	"MERIDA"	"20.9516609"	"-89.6096071"
"ELDA MARIA ZOZAYA PENICHE"	"CALLE 34 SN"	"MERIDA"	"MERIDA"	"20.9517405"	"-89.6888655"
"VENUSTIANO CARRANZA"	"CALLE 77 400"	"MERIDA"	"MERIDA"	"20.951989"	"-89.6070704"
"LEOPOLDO ARANA CABRERA"	"CALLE 77 400"	"MERIDA"	"MERIDA"	"20.951989"	"-89.6070704"
"JOSE MONTES DE OCA"	"CALLE 69"	"MERIDA"	"MERIDA"	"20.9520553"	"-89.5964923"
"LA MAGIA DE LOS NIÑOS"	"CALLE 20 DIAGONAL 702"	"MERIDA"	"MERIDA"	"20.9521932"	"-89.5988825"
"SEBASTIAN PENICHE LOPEZ"	"CALLE 29-C"	"KANASIN"	"KANASIN"	"20.9522512"	"-89.5692936"
"22 DE FEBRERO CROC"	"CALLE 25-B"	"MERIDA"	"MERIDA"	"20.9523844"	"-89.5798232"
"VICENTE GUERRERO"	"CALLE 57 556"	"MERIDA"	"MERIDA"	"20.9526588"	"-89.5992062"
"VICENTE GUERRERO"	"CALLE 57 556"	"MERIDA"	"MERIDA"	"20.9526588"	"-89.5992062"
"ELVIA CARRILLO PUERTO"	"CALLE 34"	"MERIDA"	"MERIDA"	"20.9527524"	"-89.6896902"
"EDUARDO URZAIZ RODRIGUEZ"	"CALLE 69"	"MERIDA"	"MERIDA"	"20.9530103"	"-89.5979431"
"EDUARDO URZAIZ RODRIGUEZ"	"CALLE 69"	"MERIDA"	"MERIDA"	"20.9530103"	"-89.5979431"
"CHICHEN ITZA"	"CALLE 34"	"MERIDA"	"MERIDA"	"20.9530849"	"-89.6898314"
"NACHI-COCOM"	"CALLE 75"	"MERIDA"	"MERIDA"	"20.9532653"	"-89.6817177"
"ELVIA MAGANDA AVILA"	"CALLE NIGUNO"	"MERIDA"	"MERIDA"	"20.9533028"	"-89.682009"
"FLORINDA BATISTA ESPINOLA"	"CALLE 69 200"	"MERIDA"	"MERIDA"	"20.9534777"	"-89.5988383"
"FLORINDA BATISTA ESPINOLA"	"CALLE 69 200"	"MERIDA"	"MERIDA"	"20.9534777"	"-89.5988383"
"VICENTE GUERRERO"	"CALLE 81-A 500"	"MERIDA"	"MERIDA"	"20.9534966"	"-89.5777501"
"JUAN ESCUTIA"	"CALLE 106 670"	"MERIDA"	"MERIDA"	"20.9535266"	"-89.6548483"
"SECUNDARIA TECNICA NUM. 79"	"CALLE 10-D"	"MERIDA"	"MERIDA"	"20.9544474"	"-89.5855674"
"ELADIO NOVELO GIL"	"CALLE 8-B 218"	"MERIDA"	"MERIDA"	"20.9544949"	"-89.579968"
"INSTITUTO PSICOPEDAGOGICO GABRIEL F. DE J. MOGUEL VAZQUEZ"	"CALLE 62 617"	"MERIDA"	"MERIDA"	"20.9545249"	"-89.6271843"
"ADOLFINA CARDEÑA M DE ARCEO"	"CALLE 71-A 373"	"MERIDA"	"MERIDA"	"20.9545784"	"-89.6042129"
"JOSE VASCONCELOS"	"CALLE 8-B 218"	"MERIDA"	"MERIDA"	"20.9545791"	"-89.5799952"
"PATRIA UNIDA"	"CALLE 48 563"	"MERIDA"	"MERIDA"	"20.9547173"	"-89.6180376"
"CENTRO EDUCATIVO PATRIA UNIDA"	"CALLE 48 563"	"MERIDA"	"MERIDA"	"20.9547173"	"-89.6180376"
"RAFAEL MATOS ESCOBEDO"	"CALLE 100"	"MERIDA"	"MERIDA"	"20.955127"	"-89.6509852"
"BAJA CALIFORNIA"	"CALLE 20 201"	"MERIDA"	"MERIDA"	"20.9554232"	"-89.5953402"
"NIÑOS DEL MUNDO"	"CALLE 73-C 946"	"MERIDA"	"MERIDA"	"20.9555045"	"-89.6599498"
"AGUSTIN FRANCO AGUILAR"	"CALLE 17 216"	"MERIDA"	"MERIDA"	"20.9555069"	"-89.579083"
"JESUS GARCIA"	"CALLE 36 551"	"MERIDA"	"MERIDA"	"20.9560349"	"-89.6102599"
"PRESIDENTE MIGUEL ALEMAN"	"CALLE 21 202 A"	"KANASIN"	"KANASIN"	"20.956104"	"-89.5829283"
"PRESIDENTE MIGUEL ALEMAN"	"CALLE 21 202 A"	"KANASIN"	"KANASIN"	"20.956104"	"-89.5829283"
"OCTAVIO PAZ"	"CALLE 19 192 C"	"MERIDA"	"MERIDA"	"20.9561312"	"-89.5982212"
"JOAQUIN COELLO COELLO"	"CALLE 112 735"	"MERIDA"	"MERIDA"	"20.956158"	"-89.6555044"
"FRANCISCO J. MUJICA"	"CALLE 79-BIS 597"	"MERIDA"	"MERIDA"	"20.9563133"	"-89.6462491"
"MI PEQUEÑO MUNDO"	"CALLE 73-A 475 A"	"MERIDA"	"MERIDA"	"20.9563809"	"-89.6137511"
"ALBERT EINSTEIN"	"CALLE 66 618 C"	"MERIDA"	"MERIDA"	"20.956652"	"-89.630174"
"ALBERT EINSTEIN"	"CALLE 66 618 C"	"MERIDA"	"MERIDA"	"20.956652"	"-89.630174"
"FEDERICO GAMBOA"	"CALLE 19"	"MERIDA"	"MERIDA"	"20.9570456"	"-89.5856171"
"LUIS ALVAREZ BARRET"	"CALLE 82 538"	"MERIDA"	"MERIDA"	"20.9570507"	"-89.6402621"
"LUIS ALVAREZ BARRET"	"CALLE 82 538"	"MERIDA"	"MERIDA"	"20.9570507"	"-89.6402621"
"LUIS ALVAREZ BARRET"	""	"DZITYA"	"MERIDA"	"20.9570507"	"-89.6402621"
"GOTITAS"	"CALLE 42 551"	"MERIDA"	"MERIDA"	"20.9571432"	"-89.6139656"
"ESTEFANIA CASTAÑEDA"	"CALLE 116"	"MERIDA"	"MERIDA"	"20.9572028"	"-89.6586305"
"GONZALO LOPEZ MANZANERO"	"CALLE 64 602 A"	"MERIDA"	"MERIDA"	"20.9572659"	"-89.6266174"
"ALIANZA DE CAMIONEROS"	"CALLE 62 588 A"	"MERIDA"	"MERIDA"	"20.9575175"	"-89.6279098"
"GUARDERIA PARTICIPATIVA NUM. 087 MARCELO CANTO ESPARZA"	"CALLE 15-C 193 A"	"MERIDA"	"MERIDA"	"20.9576174"	"-89.5766509"
"JOAQUIN CEBALLOS MIMENZA"	"CALLE 73"	"MERIDA"	"MERIDA"	"20.95762"	"-89.613985"
"DAVID ALFARO SIQUEIROS"	"CALLE 15 230"	"MERIDA"	"MERIDA"	"20.957858"	"-89.598215"
"JUANA CAMARGO ESCALANTE"	"CALLE 16 621"	"MERIDA"	"MERIDA"	"20.9580006"	"-89.571571"
"PASITOS DE PREESCOLAR"	"CALLE 69 342"	"MERIDA"	"MERIDA"	"20.9580333"	"-89.6081422"
"CONSUELO ZAVALA"	"CALLE 58 593"	"MERIDA"	"MERIDA"	"20.958058"	"-89.62487"
"CONSUELO ZAVALA"	"CALLE 60 604"	"MERIDA"	"MERIDA"	"20.958058"	"-89.62487"
"CONSUELO ZAVALA"	"CALLE 60 604"	"MERIDA"	"MERIDA"	"20.958058"	"-89.62487"
"TUMBEN LOL"	"CALLE 102"	"MERIDA"	"MERIDA"	"20.95821"	"-89.649739"
"DULCE PRIMAVERA"	"CALLE 67-A"	"MERIDA"	"MERIDA"	"20.9583506"	"-89.6722866"
"FIDELIA SANCHEZ"	"CALLE 17"	"MERIDA"	"MERIDA"	"20.9583885"	"-89.5899697"
"INSTITUTO ORIENTE"	"CALLE 15-B 198"	"MERIDA"	"MERIDA"	"20.9584338"	"-89.579708"
"MANUEL CEPEDA PERAZA"	"CALLE 72 556 B"	"MERIDA"	"MERIDA"	"20.9584805"	"-89.6331953"
"ARTEMIO ALPIZAR RUZ"	"CALLE 52 555 NA"	"MERIDA"	"MERIDA"	"20.9585031"	"-89.619777"
"DOMINGO SOLIS RODRIGUEZ"	"CALLE 52 555"	"MERIDA"	"MERIDA"	"20.9585165"	"-89.61977"
"VICENTE GUERRERO"	"CALLE 52 555"	"MERIDA"	"MERIDA"	"20.9585165"	"-89.61977"
"AMADO NERVO"	"CALLE 16 589"	"MERIDA"	"MERIDA"	"20.958585"	"-89.5714938"
"REVOLUCION"	"CALLE 16 589"	"MERIDA"	"MERIDA"	"20.9586584"	"-89.5714802"
"NIÑOS EXPLORADORES"	"CALLE 124 100 B"	"MERIDA"	"MERIDA"	"20.9587075"	"-89.667741"
"JULIA PEON"	"CALLE 54 554"	"MERIDA"	"MERIDA"	"20.959051"	"-89.6207651"
"MARIA ANTONIA ANCONA"	"CALLE 72 565"	"MERIDA"	"MERIDA"	"20.9591537"	"-89.632889"
"GONZALO LOPEZ MANZANERO"	"CALLE 62 588"	"MERIDA"	"MERIDA"	"20.9592742"	"-89.625922"
"MI MUNDO DE INTEGRACION"	"CALLE 69 383"	"MERIDA"	"MERIDA"	"20.9593474"	"-89.6118004"
"MARIA ANTONIA ANCONA"	"CALLE 75 542"	"MERIDA"	"MERIDA"	"20.9594777"	"-89.6334613"
"DEMETRIO RIVERO TRIAY"	"CALLE 53-A"	"KANASIN"	"KANASIN"	"20.95957"	"-89.5643066"
"AVELINO MONTES LINAJE"	"CALLE 74 557"	"MERIDA"	"MERIDA"	"20.959573"	"-89.633908"
"AVELINO MONTES LINAJE-A.C."	"CALLE 75 561 A"	"MERIDA"	"MERIDA"	"20.959573"	"-89.633908"
"AVELINO MONTES LINAJE-A.C."	"CALLE 75 563"	"MERIDA"	"MERIDA"	"20.959573"	"-89.633908"
"NIÑOS DE MEXICO"	"CALLE 75 565 A"	"MERIDA"	"MERIDA"	"20.959701"	"-89.6346657"
"JOSEFA ORTIZ DE DOMINGUEZ"	"CALLE 65-A"	"MERIDA"	"MERIDA"	"20.9597483"	"-89.671821"
"JOSEFA ORTIZ DE DOMINGUEZ"	""	"SUSULA"	"MERIDA"	"20.9597483"	"-89.671821"
"INSTITUTO JUAREZ"	"CALLE 66 591"	"MERIDA"	"MERIDA"	"20.9598906"	"-89.6287578"
"INSTITUTO JUAREZ"	"CALLE 66 591"	"MERIDA"	"MERIDA"	"20.9598906"	"-89.6287578"
"INJUME"	"CALLE 66 591"	"MERIDA"	"MERIDA"	"20.959891"	"-89.628758"
"ELVIA CARRILLO"	"CALLE 75"	"MERIDA"	"MERIDA"	"20.9601838"	"-89.6388294"
"JOSEFINA PATRON MENDEZ DE GAMBOA"	"CALLE 67 437 B"	"MERIDA"	"MERIDA"	"20.9602138"	"-89.6108065"
"RAFAELA RODRIGUEZ"	"AVENIDA ITZAES 597"	"MERIDA"	"MERIDA"	"20.960263"	"-89.6420662"
"MANITAS CREATIVAS DE LA LOTERIA NACIONAL"	"CALLE 14 743"	"MERIDA"	"MERIDA"	"20.960272"	"-89.5857907"
"CENTRO EDUCATIVO DE LOTERIA NACIONAL"	"CALLE 14 743"	"MERIDA"	"MERIDA"	"20.960272"	"-89.5857907"
"CENTRO EDUCATIVO INFANTIL MI MUNDO NUEVO"	"CALLE 110 574"	"MERIDA"	"MERIDA"	"20.96063"	"-89.6553286"
"CENTRO ESCOLAR JAIME TORRES BODET"	"CALLE 126 104 D"	"MERIDA"	"MERIDA"	"20.9608096"	"-89.6691431"
"CENTRO ESCOLAR JAIME TORRES BODET"	"CALLE 65-A 104"	"MERIDA"	"MERIDA"	"20.9608096"	"-89.6691431"
"VICENTE MARIA VELAZQUEZ"	"CALLE 64 550"	"MERIDA"	"MERIDA"	"20.9610152"	"-89.6268197"
"TERESA DE CALCUTA"	"CALLE 65 315 E-G"	"MERIDA"	"MERIDA"	"20.9610397"	"-89.6065301"
"MARIA DE MAEZTU"	"CALLE 10 522"	"MERIDA"	"MERIDA"	"20.9611523"	"-89.5948999"
"MARIA DE MAEZTU"	"CALLE 10 522"	"MERIDA"	"MERIDA"	"20.9611523"	"-89.5948999"
"COLEGIO MEXICANO"	"CALLE 69 452"	"MERIDA"	"MERIDA"	"20.9613294"	"-89.6188832"
"NUEVA VIDA"	"CALLE 62 538 A"	"MERIDA"	"MERIDA"	"20.9613785"	"-89.6254757"
"LOURDES"	"CALLE 38 342"	"MERIDA"	"MERIDA"	"20.9614628"	"-89.6102409"
"COLEGIO DEL MAYAB"	"CALLE 74 553 B"	"MERIDA"	"MERIDA"	"20.9614897"	"-89.6336927"
"COLEGIO DEL MAYAB"	"CALLE 74 553 B"	"MERIDA"	"MERIDA"	"20.9614897"	"-89.6336927"
"COLEGIO DEL MAYAB"	"CALLE 74 553 B"	"MERIDA"	"MERIDA"	"20.9614897"	"-89.6336927"
"ANDREA AGUILAR DE CUEVAS"	"CALLE 67 900"	"MERIDA"	"MERIDA"	"20.9617069"	"-89.6576069"
"CONSUELO ANDRADE"	"CALLE 67"	"MERIDA"	"MERIDA"	"20.961938"	"-89.6168952"
"SANTO TOMAS DE AQUINO"	"CALLE 62 554"	"MERIDA"	"MERIDA"	"20.9620911"	"-89.6253139"
"LOURDES"	"CALLE 65 344"	"MERIDA"	"MERIDA"	"20.9621668"	"-89.6103702"
"CENTRO EDUCATIVO APRENDICES MEXICO ORIENTE"	"CALLE 17 150 C"	"MERIDA"	"MERIDA"	"20.9623739"	"-89.5997838"
"ALEJANDRO FLEMING"	"CALLE 21"	"MERIDA"	"MERIDA"	"20.9628942"	"-89.5778675"
"VICTOR MANUEL MARTINEZ HERRERA"	"CALLE 65-E 212"	"KANASIN"	"KANASIN"	"20.9629236"	"-89.5419081"
"ESCUELA SECUNDARIA TECNICA NUM. 44"	"CALLE 63"	"MERIDA"	"MERIDA"	"20.9629831"	"-89.6650986"
"MEXICO"	"CALLE 94 728"	"MERIDA"	"MERIDA"	"20.9630067"	"-89.6461483"
"ROSALINDA ESPINOSA ORTIZ"	"CALLE 67"	"KANASIN"	"KANASIN"	"20.9630657"	"-89.5457819"
"BENITO JUAREZ GARCIA"	"CALLE 21"	"MERIDA"	"MERIDA"	"20.9631835"	"-89.5759226"
"BAXAL PAAL"	"CALLE 30 501 U"	"MERIDA"	"MERIDA"	"20.9634245"	"-89.6039896"
"KAMBAL-BAXAL"	"CALLE 30 501 U"	"MERIDA"	"MERIDA"	"20.9634245"	"-89.6039896"
"EMILIO PORTES GIL"	"CALLE 63-B 672"	"MERIDA"	"MERIDA"	"20.9634466"	"-89.5860606"
"JOSE VASCONCELOS"	"CALLE 65-E 212"	"KANASIN"	"KANASIN"	"20.9635155"	"-89.5459824"
"PATRIA"	"CALLE 65 434"	"MERIDA"	"MERIDA"	"20.9636215"	"-89.6165873"
"CACHORRITOS"	"CALLE 22 367"	"MERIDA"	"MERIDA"	"20.9637752"	"-89.6783203"
"COLEGIO PEQUEÑOS GRANDES GENIOS"	"CALLE 53-A 343"	"MERIDA"	"MERIDA"	"20.9637985"	"-89.6772719"
"ARTEMIO ALPIZAR RUZ"	"CALLE 65-A"	"MERIDA"	"MERIDA"	"20.9638353"	"-89.648884"
"ARTEMIO ALPIZAR RUZ"	"CALLE 65-A"	"MERIDA"	"MERIDA"	"20.9638353"	"-89.648884"
"FRANCISCO I. MADERO"	"CALLE 65 695"	"MERIDA"	"MERIDA"	"20.9641763"	"-89.652804"
"CENTRO EDUCATIVO CARLOS MONSIVAIS"	"CALLE 86 519"	"MERIDA"	"MERIDA"	"20.9643249"	"-89.6407256"
"ROGELIO CHALE"	""	"HUNKANAB"	"HUNUCMA"	"20.9644432"	"-89.8562958"
"CARLOS FUENTES"	"CALLE 39 810"	"MERIDA"	"MERIDA"	"20.9644876"	"-89.6557744"
"RAFAEL MOGUEL GAMBOA"	"CALLE 16"	"MERIDA"	"MERIDA"	"20.9644887"	"-89.5707359"
"LIVIA MENDOZA SANTANA"	"CALLE 16"	"MERIDA"	"MERIDA"	"20.9644887"	"-89.5707359"
"ESTADO DE SONORA"	"CALLE 61 285"	"MERIDA"	"MERIDA"	"20.9646646"	"-89.5962155"
"MEXICANA DEL MAYAB"	"CALLE 61 322"	"MERIDA"	"MERIDA"	"20.9646824"	"-89.5983024"
"MEXICANA DEL MAYAB"	"CALLE 61 322"	"MERIDA"	"MERIDA"	"20.9646824"	"-89.5983024"
"ACUARELAS"	"CALLE 61 350 X"	"MERIDA"	"MERIDA"	"20.9646925"	"-89.6046326"
"BINET"	"CALLE 61 371 A"	"MERIDA"	"MERIDA"	"20.9647073"	"-89.6061058"
"DELIO MORENO CANTON"	"CALLE 61 365 A"	"MERIDA"	"MERIDA"	"20.9647991"	"-89.6052183"
"IGNACIO ZARAGOZA"	"CALLE 18 208"	"MERIDA"	"MERIDA"	"20.9648315"	"-89.6522995"
"MI REINO INFANTIL"	"CALLE 14 530"	"MERIDA"	"MERIDA"	"20.964955"	"-89.5692348"
"SILVIO ZAVALA VALLADO"	"CALLE 22"	"TETIZ"	"TETIZ"	"20.9654825"	"-89.9375662"
"UNESCO"	"CALLE 58 507"	"MERIDA"	"MERIDA"	"20.9656029"	"-89.6222309"
"CENTRO ESCOLAR UNESCO"	"CALLE 60 387"	"MERIDA"	"MERIDA"	"20.9656029"	"-89.6222309"
"GONZALO NAVARRO BAEZ"	"CALLE 59 849"	"MERIDA"	"MERIDA"	"20.9656085"	"-89.5888257"
"GONZALO NAVARRO BAEZ"	"CALLE 59 849"	"MERIDA"	"MERIDA"	"20.9656085"	"-89.5888257"
"DOLORES OTERO MALDONADO"	"CALLE 57-D"	"MERIDA"	"MERIDA"	"20.9656822"	"-89.5870162"
"ALTAMIRANO"	"CALLE 65 343"	"MERIDA"	"MERIDA"	"20.9658801"	"-89.6265805"
"LOL-HA"	"CALLE 15 549"	"MERIDA"	"MERIDA"	"20.965932"	"-89.5710182"
"ERMILO ABREU GOMEZ"	"CALLE 23 207"	"MERIDA"	"MERIDA"	"20.9665541"	"-89.5961357"
"ERMILO ABREU GOMEZ"	"CALLE 57-B 407"	"MERIDA"	"MERIDA"	"20.9665541"	"-89.5961357"
"SANTIAGO HERRERA CASTILLO"	"CALLE 41 224 NA"	"MERIDA"	"MERIDA"	"20.966896"	"-89.6735286"
"FELIPE CARRILLO PUERTO"	"CALLE 27 94"	"CANSAHCAB"	"CANSAHCAB"	"20.9669192"	"-89.6316162"
"MANUEL SARRADO"	"CALLE 20"	"MERIDA"	"MERIDA"	"20.9669548"	"-89.6268534"
"MANUEL SARRADO"	"CALLE 63 532"	"MERIDA"	"MERIDA"	"20.9669548"	"-89.6268534"
"LA ESCUELITA DE FELIPITO"	"CALLE 65 597"	"MERIDA"	"MERIDA"	"20.9670167"	"-89.632394"
"JUAN DE LA BARRERA"	"CALLE 65 597"	"MERIDA"	"MERIDA"	"20.9670248"	"-89.6322585"
"JACINTO LEONARDO ROSADO AVILES"	"CALLE 50"	"MERIDA"	"MERIDA"	"20.9670372"	"-89.6677031"
"MANUEL DIAZ MASSA"	"CALLE 41 224"	"MERIDA"	"MERIDA"	"20.9670375"	"-89.6733097"
"ESCUELA SECUNDARIA TECNICA NUM. 74"	"CALLE 32 437"	"MERIDA"	"MERIDA"	"20.9670402"	"-89.6850064"
"JOSEFA ORTIZ DE DOMINGUEZ"	"CALLE 63 546"	"MERIDA"	"MERIDA"	"20.9672691"	"-89.6288194"
"CUITLAHUAC"	""	"TIXCACAL"	"MERIDA"	"20.9673702"	"-89.5925857"
"MAGICO UNIVERSO"	"CALLE 14 641"	"MERIDA"	"MERIDA"	"20.9674229"	"-89.5857735"
"LAS HORAS FELICES"	"CALLE 57 824"	"MERIDA"	"MERIDA"	"20.9674714"	"-89.665891"
"FELIPE CARRILLO PUERTO"	"CALLE 63 515"	"MERIDA"	"MERIDA"	"20.967473"	"-89.5810369"
"FRANCISCO I. MADERO"	"CALLE 35"	"MERIDA"	"MERIDA"	"20.9676033"	"-89.6577433"
"LUIS ESPINOSA MORALES"	"CALLE 61"	"MERIDA"	"MERIDA"	"20.9676746"	"-89.561722"
"ESCUELA SECUNDARIA TECNICA NUM. 20"	"CALLE 46 196 D"	"MERIDA"	"MERIDA"	"20.9677415"	"-89.5763491"
"SECUNDARIA TECNICA NUM. 77"	"CALLE 46 196 D"	"MERIDA"	"MERIDA"	"20.9677415"	"-89.5763491"
"ESCUELA SECUNDARIA TECNICA NUM. 58"	"CALLE 63 123"	"MERIDA"	"MERIDA"	"20.9677415"	"-89.5763491"
"FIDEL VELAZQUEZ"	"CALLE 34 150"	"MERIDA"	"MERIDA"	"20.9677981"	"-89.5691631"
"DOLORES OTERO MALDONADO"	"CALLE 34"	"MERIDA"	"MERIDA"	"20.967988"	"-89.685803"
"JULIA RUIZ FUENTES"	"CALLE 45 NA"	"MERIDA"	"MERIDA"	"20.9680274"	"-89.6849654"
"JUANA INES DE LA CRUZ"	"CALLE 37 200"	"MERIDA"	"MERIDA"	"20.9680926"	"-89.6752295"
"JUANA INES DE LA CRUZ"	"CALLE 37 200"	"MERIDA"	"MERIDA"	"20.9680926"	"-89.6752295"
"NETZAHUALCOYOTL"	"CALLE 26 202 G"	"MERIDA"	"MERIDA"	"20.9681013"	"-89.6553049"
"OVIDE DECROLY"	"CALLE 35 200 C"	"MERIDA"	"MERIDA"	"20.9681471"	"-89.6583834"
"EMILIANO ZAPATA"	"CALLE 57"	"MERIDA"	"MERIDA"	"20.9683536"	"-89.593597"
"1 DE MAYO"	"CALLE 14 407"	"MERIDA"	"MERIDA"	"20.968472"	"-89.5962745"
"NICOLAS CAMARA LUJAN"	"CALLE 57 458"	"MERIDA"	"MERIDA"	"20.9685324"	"-89.6140515"
"DISTRITO FEDERAL"	"CALLE 57 466"	"MERIDA"	"MERIDA"	"20.9686981"	"-89.6158795"
"DISTRITO FEDERAL"	"CALLE 57 466 A"	"MERIDA"	"MERIDA"	"20.9686981"	"-89.6158795"
"INSTITUTO MONTE LIBANO"	"CALLE 54 486"	"MERIDA"	"MERIDA"	"20.9688452"	"-89.6186337"
"INSTITUTO MONTE LIBANO"	"CALLE 54 486  Num. Exterior 1"	"MERIDA"	"MERIDA"	"20.9688452"	"-89.6186337"
"CENDI MONTE LIBANO NUM. 186"	"CALLE 54 493"	"MERIDA"	"MERIDA"	"20.9688452"	"-89.6186337"
"SOLIDARIDAD"	"CALLE 10 618"	"MERIDA"	"MERIDA"	"20.9688812"	"-89.6693961"
"FRANCISCO I. MADERO"	"CALLE 31 202"	"MERIDA"	"MERIDA"	"20.9692018"	"-89.6575074"
"COLEGIO AMERICANO"	"CALLE 72 499"	"MERIDA"	"MERIDA"	"20.9693642"	"-89.6306873"
"COLEGIO AMERICANO"	"CALLE 72 499"	"MERIDA"	"MERIDA"	"20.9693642"	"-89.6306873"
"SEPTIMIO PEREZ PALACIOS"	"CALLE 55"	"MERIDA"	"MERIDA"	"20.969368"	"-89.5761319"
"ALFREDO NOBEL"	"CALLE 55 423"	"MERIDA"	"MERIDA"	"20.9693752"	"-89.5796284"
"CESAR MENDOZA SANTANA"	"CALLE 55"	"MERIDA"	"MERIDA"	"20.9693993"	"-89.5762941"
"CESAR MENDOZA SANTANA"	"CARRETERA MERIDA-PROGRESO KILOMETRO 8 CORDEMEX"	"MERIDA"	"MERIDA"	"20.9693993"	"-89.5762941"
"ISOLINA ROSADO DE GRAHAM"	"CALLE 46 900"	"MERIDA"	"MERIDA"	"20.9694971"	"-89.5792524"
"JOSE PEON CONTRERAS"	"CALLE 12 100 B"	"SINANCHE"	"SINANCHE"	"20.9695217"	"-89.6222319"
"LEYES DE REFORMA"	"CALLE 59-A 566 F"	"MERIDA"	"MERIDA"	"20.9695389"	"-89.6299731"
"CARLOS CASTRO MORALES"	"CALLE 61 632"	"MERIDA"	"MERIDA"	"20.9695493"	"-89.6376178"
"NICOLAS BRAVO"	"CALLE 59 566"	"MERIDA"	"MERIDA"	"20.9697357"	"-89.6299181"
"EDUCACION Y PATRIA-A.C."	"CALLE 64 485"	"MERIDA"	"MERIDA"	"20.969793"	"-89.6254872"
"EDUCACION Y PATRIA"	"CALLE 64 485"	"MERIDA"	"MERIDA"	"20.969793"	"-89.6254872"
"EDUCACION Y PATRIA"	"CALLE 66 484"	"MERIDA"	"MERIDA"	"20.969793"	"-89.6254872"
"LEY DE GINEBRA"	"CALLE 59"	"KANASIN"	"KANASIN"	"20.9698263"	"-89.5554003"
"HEROE DE NACOZARI"	"CALLE 55 454"	"MERIDA"	"MERIDA"	"20.9698626"	"-89.6169212"
"AMANECER PENINSULAR"	"CALLE 55 695"	"MERIDA"	"MERIDA"	"20.9699891"	"-89.58618"
"KINDER MAGICO DE MERIDA"	"CALLE 55 697"	"MERIDA"	"MERIDA"	"20.9699891"	"-89.58618"
"LUIS ALVAREZ BARRET"	"CALLE 18"	"MERIDA"	"MERIDA"	"20.97"	"-89.62"
"ESCUELA SECUNDARIA TECNICA NUM. 24"	"CALLE 23"	"MERIDA"	"MERIDA"	"20.97"	"-89.62"
"ESCUELA SECUNDARIA TECNICA NUM. 55"	"CALLE 23"	"MERIDA"	"MERIDA"	"20.97"	"-89.62"
"SECUNDARIA TECNICA NUM. 78"	"CALLE 23"	"MERIDA"	"MERIDA"	"20.97"	"-89.62"
"FELIPE CARRILLO PUERTO"	"CALLE 25"	"MERIDA"	"MERIDA"	"20.97"	"-89.62"
"SANTIAGO MENESES"	"CALLE 52"	"MERIDA"	"MERIDA"	"20.97"	"-89.62"
"ESCUELA SECUNDARIA TECNICA NUM. 2"	"CALLE 60"	"MERIDA"	"MERIDA"	"20.97"	"-89.62"
"NICOLAS BRAVO"	"CALLE 59 564 A"	"MERIDA"	"MERIDA"	"20.9701886"	"-89.6323627"
"JOSE EMILIO VALLADO GALAZ"	"CALLE 31 201 NA"	"MERIDA"	"MERIDA"	"20.9702994"	"-89.6574497"
"ELIGIO ANCONA"	"CALLE 59 624"	"MERIDA"	"MERIDA"	"20.9705853"	"-89.6354862"
"SALVADOR ALVARADO"	"CALLE 25 545"	"MERIDA"	"MERIDA"	"20.9706598"	"-89.5983538"
"JUSTO SIERRA MENDEZ"	"CALLE 32 405"	"MERIDA"	"MERIDA"	"20.9707696"	"-89.6838366"
"27 DE SEPTIEMBRE"	"CALLE 14 84"	"MERIDA"	"MERIDA"	"20.970789"	"-89.5980592"
"MOISES SAENZ"	"CALLE 31 201"	"MERIDA"	"MERIDA"	"20.9708131"	"-89.6573504"
"MARCIAL RUZ CARRILLO"	"CALLE 21 102"	"MERIDA"	"MERIDA"	"20.9708213"	"-89.6691766"
"NAHIL PAAL"	"CALLE 25 191"	"MERIDA"	"MERIDA"	"20.97094"	"-89.674234"
"MARIA DE MONSERRAT"	"CALLE 53 416"	"MERIDA"	"MERIDA"	"20.970953"	"-89.6060716"
"ANGELICA GUILLEN FERDINAND"	"CALLE 53 416"	"MERIDA"	"MERIDA"	"20.9709917"	"-89.6059736"
"VICENTE GUERRERO"	"CALLE 53 556"	"MERIDA"	"MERIDA"	"20.9711053"	"-89.6306354"
"SALVADOR VARELA RESENDIZ"	"CALLE 52"	"MERIDA"	"MERIDA"	"20.9712433"	"-89.5809159"
"SALVADOR VARELA RESENDIZ"	"CALLE 52"	"MERIDA"	"MERIDA"	"20.9712433"	"-89.5809159"
"ESPACIO EDUCATIVO EVEREST"	"CALLE 29 74"	"MERIDA"	"MERIDA"	"20.9713052"	"-89.5695899"
"OLEGARIO CORTES SOLIS"	"CALLE 29 74"	"MERIDA"	"MERIDA"	"20.9713052"	"-89.5695899"
"PREESCOLAR INSTITUTO EDUCATIVO PENINSULAR DE YUCATAN"	"CALLE 32 200 J"	"MERIDA"	"MERIDA"	"20.9714062"	"-89.6568584"
"CARMELA COSGAYA RIVAS"	"CALLE 51"	"MERIDA"	"MERIDA"	"20.9714715"	"-89.5904826"
"CENTRO DE DESARROLLO INFANTIL DE MERIDA"	"CALLE 53 488"	"MERIDA"	"MERIDA"	"20.9715532"	"-89.6186884"
"JACINTO CANEK"	"CALLE 45 519"	"MERIDA"	"MERIDA"	"20.9715917"	"-89.5808978"
"CARLOS CASTRO MORALES"	"CALLE 80 490"	"MERIDA"	"MERIDA"	"20.9717656"	"-89.6355513"
"LA CASITA"	"CALLE 72 482"	"MERIDA"	"MERIDA"	"20.9719269"	"-89.6297639"
"ROBY NAIM GUETTA"	"CALLE 19"	"MERIDA"	"MERIDA"	"20.9721267"	"-89.6737209"
"JOSE MARIA PINO SUAREZ"	"CALLE 17 108"	"MERIDA"	"MERIDA"	"20.972263"	"-89.6027374"
"JOSE MARIA PINO SUAREZ"	"CALLE 38 81"	"MERIDA"	"MERIDA"	"20.972263"	"-89.6027374"
"HEROE DE NACOZARI"	""	"SAN ANTONIO MILLET"	"TIXKOKOB"	"20.9723265"	"-89.3980161"
"MIGUEL ANGEL FERRERA BASTO"	"CALLE 10"	"MERIDA"	"MERIDA"	"20.9725945"	"-89.5616438"
"NUEVA CREACION"	"CALLE 60"	"MERIDA"	"MERIDA"	"20.9727097"	"-89.6223694"
"5 DE MAYO"	"CALLE 71-D"	"MERIDA"	"MERIDA"	"20.9728187"	"-89.6599976"
"ZAMNA"	"CALLE 53 241"	"MERIDA"	"MERIDA"	"20.972848"	"-89.628797"
"CENTRO EDUCATIVO KUKULCAN"	"CALLE 13 101"	"MERIDA"	"MERIDA"	"20.9728487"	"-89.6690978"
"CENTRO EDUCATIVO KUKULCAN"	"CALLE 13 101"	"MERIDA"	"MERIDA"	"20.9728487"	"-89.6690978"
"IGNACIO MANUEL ALTAMIRANO"	"CALLE 17"	"MERIDA"	"MERIDA"	"20.9733556"	"-89.6780841"
"MARIA GONZALEZ PALMA"	"CALLE 50 454"	"MERIDA"	"MERIDA"	"20.9733685"	"-89.6147819"
"MA GONZALEZ PALMA DE AVILA"	"CALLE 50 454"	"MERIDA"	"MERIDA"	"20.9733685"	"-89.6147819"
"MARIA GONZALEZ PALMA DE-A.C."	"CALLE 50 454 NA"	"MERIDA"	"MERIDA"	"20.9733685"	"-89.6147819"
"MOTOLINIA DE MERIDA"	"CALLE 14 100"	"MERIDA"	"MERIDA"	"20.97342"	"-89.5988387"
"MOTOLINIA"	"CALLE 14 100"	"MERIDA"	"MERIDA"	"20.97342"	"-89.5988387"
"MOTOLINIA DE MERIDA"	"CALLE 14 100"	"MERIDA"	"MERIDA"	"20.97342"	"-89.5988387"
"JUAN DE DIOS RODRIGUEZ HEREDIA"	"CALLE 25 545"	"MERIDA"	"MERIDA"	"20.973626"	"-89.5751223"
"CENTRO EDUCATIVO SALVADOR ALVARADO ORIENTE"	"CALLE 38 559"	"MERIDA"	"MERIDA"	"20.9737582"	"-89.5734537"
"COLIBRI"	"CALLE 47 392 H"	"MERIDA"	"MERIDA"	"20.9739677"	"-89.6073052"
"CENTRO EDUCATIVO ANGLO MONTESSORI"	"CALLE 37 301"	"MERIDA"	"MERIDA"	"20.9740176"	"-89.5783753"
"JUAN JOSE COELLO RAMIREZ"	"CALLE 40 543"	"MERIDA"	"MERIDA"	"20.9743933"	"-89.575161"
"RAMON OSORIO OSORIO"	"CALLE 32"	"MERIDA"	"MERIDA"	"20.9745157"	"-89.6036308"
"SALVADOR DALI"	"CALLE 47 274"	"MERIDA"	"MERIDA"	"20.9745791"	"-89.5896934"
"GUADALUPE VICTORIA"	"CALLE 45 412"	"MERIDA"	"MERIDA"	"20.9746952"	"-89.6061162"
"SAC NICTE"	"CALLE 39"	"MERIDA"	"MERIDA"	"20.9748823"	"-89.5641199"
"INSTITUTO KOMENSKI"	"CALLE 5 135"	"MERIDA"	"MERIDA"	"20.97495"	"-89.670662"
"CENTRO EDUCATIVO AMERICA"	"CALLE 5 137"	"MERIDA"	"MERIDA"	"20.9749816"	"-89.6708125"
"CENTRO EDUCATIVO AMERICA"	"CALLE 5 141"	"MERIDA"	"MERIDA"	"20.9749816"	"-89.6708125"
"CENTRO EDUCATIVO AMERICA"	"CALLE 5 141"	"MERIDA"	"MERIDA"	"20.9749816"	"-89.6708125"
"ENRIQUE C REBSAMEN"	"CALLE 16"	"MERIDA"	"MERIDA"	"20.9755235"	"-89.587449"
"ADRIANA VADILLO RIVAS"	"CALLE 45 238"	"MERIDA"	"MERIDA"	"20.9755663"	"-89.5897032"
"JESUS REYES HEROLES"	"CALLE 118 314"	"MERIDA"	"MERIDA"	"20.9757915"	"-89.659799"
"PABLO BOLIO PONCE"	"CALLE 118 314"	"MERIDA"	"MERIDA"	"20.9757915"	"-89.659799"
"RITA ARACELLY MOGUEL GAMBOA"	"CALLE 35"	"MERIDA"	"MERIDA"	"20.9758152"	"-89.5665379"
"AGUSTIN FRANCO VILLANUEVA"	""	"MERIDA"	"MERIDA"	"20.975969"	"-89.6228549"
"JACINTO CANEK"	"CALLE 165 284"	"MERIDA"	"MERIDA"	"20.9761741"	"-89.6418772"
"GABRIELA MISTRAL"	"CALLE 104 443 A"	"MERIDA"	"MERIDA"	"20.9762182"	"-89.6499388"
"CENTRO EDUCATIVO PEQUEÑOS GENIOS"	"CALLE 32 402"	"MERIDA"	"MERIDA"	"20.9762235"	"-89.604065"
"BENJAMIN CARRILLO"	"CALLE 43 444"	"MERIDA"	"MERIDA"	"20.9763725"	"-89.6098542"
"YALDUD \"NIÑEZ QUE APRENDE\""	"CALLE 26 270"	"MERIDA"	"MERIDA"	"20.976652"	"-89.64914"
"CENTRO EDUCATIVO YALDUD"	"CALLE 102 429"	"MERIDA"	"MERIDA"	"20.9766846"	"-89.6490098"
"FRANCISCO MARQUEZ"	"CALLE 72 431"	"MERIDA"	"MERIDA"	"20.9770962"	"-89.628153"
"INSTITUTO COMERCIAL BANCARIO A C"	"CALLE 62 373"	"MERIDA"	"MERIDA"	"20.977143"	"-89.622866"
"CENTRO DE FORMACION BASICA Y SENSIBILIZACION ARTISTICA"	"AVENIDA ITZAES 501 C"	"MERIDA"	"MERIDA"	"20.9771697"	"-89.6401731"
"CENTRO DE FORMACION BASICA Y SENSIBILIZACION ARTISTICA"	"AVENIDA ITZAES 501 C"	"MERIDA"	"MERIDA"	"20.9771697"	"-89.6401731"
"LUIS DONALDO COLOSIO MURRIETA"	"CALLE 19 503 A"	"MERIDA"	"MERIDA"	"20.9771777"	"-89.575242"
"NETZAHUALCOYOTL"	"CALLE 104 435"	"MERIDA"	"MERIDA"	"20.9773401"	"-89.6498523"
"NETZAHUALCOYOTL"	"CALLE 104 435"	"MERIDA"	"MERIDA"	"20.9773401"	"-89.6498523"
"DAMIAN CARMONA"	"CALLE 41"	"MERIDA"	"MERIDA"	"20.9774438"	"-89.5833443"
"ARCO IRIS"	"CALLE 30"	"MERIDA"	"MERIDA"	"20.9774904"	"-89.5697629"
"SILVIO ZAVALA VALLADO"	"CALLE 41 438"	"MERIDA"	"MERIDA"	"20.9776729"	"-89.6024728"
"SILVIO ZAVALA VALLADO"	"CALLE 41 438"	"MERIDA"	"MERIDA"	"20.9776729"	"-89.6024728"
"REPUBLICA DE MEXICO"	"CALLE 50 415"	"MERIDA"	"MERIDA"	"20.9776729"	"-89.6139224"
"MANUEL GUTIERREZ NAJERA"	"CALLE 116-A"	"MERIDA"	"MERIDA"	"20.9777932"	"-89.6564825"
"GUARDERIA ROMINA"	"CALLE 64 371 B"	"MERIDA"	"MERIDA"	"20.9779943"	"-89.6247637"
"AGUSTIN VADILLO CICERO"	"CALLE 41"	"MERIDA"	"MERIDA"	"20.9781014"	"-89.6053544"
"AGUSTIN VADILLO CICERO"	"CALLE 41"	"MERIDA"	"MERIDA"	"20.9781014"	"-89.6053544"
"AGUSTIN VADILLO CICERO"	"CALLE 86"	"MERIDA"	"MERIDA"	"20.9781014"	"-89.6053544"
"EDMUNDO VILLALVA RODRIGUEZ"	"CALLE 84-A"	"MERIDA"	"MERIDA"	"20.9784286"	"-89.6385736"
"APRENDIENDO A CRECER"	"CALLE 52 407 B"	"MERIDA"	"MERIDA"	"20.9785479"	"-89.615338"
"CUITLAHUAC"	"CALLE 24"	"TIXPEHUAL"	"TIXPEHUAL"	"20.9785579"	"-89.4460196"
"GVC GUARDERIAS DEL MAYAB LOS PERIQUITOS"	"CALLE 67 203 E"	"MERIDA"	"MERIDA"	"20.9788649"	"-89.6584196"
"FLORINDA BATISTA ESPINOLA"	"CALLE 41 499"	"MERIDA"	"MERIDA"	"20.9792166"	"-89.6203691"
"HIDALGO"	"CALLE 60 384"	"MERIDA"	"MERIDA"	"20.9794488"	"-89.6208242"
"ESCUELA PRIMARIA"	"CALLE 60"	"MERIDA"	"MERIDA"	"20.9794751"	"-89.6208338"
"EL JARDIN DEL ABUELITO"	"CALLE 104 433 A"	"MERIDA"	"MERIDA"	"20.9795049"	"-89.6497533"
"CENTRO ESCOLAR LOS NIÑOS DEL MAÑANA"	"CALLE 11 516"	"MERIDA"	"MERIDA"	"20.9796717"	"-89.5750709"
"CENTRO ESCOLAR LOS NIÑOS DEL MAÑANA"	"CALLE 11 518"	"MERIDA"	"MERIDA"	"20.9796717"	"-89.5750709"
"CENTRO EDUCATIVO INTEGRAL DE YUCATAN"	"CALLE 39 385"	"MERIDA"	"MERIDA"	"20.9797043"	"-89.6151371"
"MARIANO ESCOBEDO"	"CALLE 18 24"	"TIXPEHUAL"	"TIXPEHUAL"	"20.9798516"	"-89.4406227"
"ROSA MARIA NEGRON UGARTE"	"CALLE 67-F 427"	"MERIDA"	"MERIDA"	"20.9802431"	"-89.6719292"
"HISPANO MEXICANO-A.C."	"CALLE 60 382"	"MERIDA"	"MERIDA"	"20.9803246"	"-89.6197857"
"HISPANO MEXICANO"	"CALLE 60 382"	"MERIDA"	"MERIDA"	"20.9803246"	"-89.6197857"
"NELLY SANSORES"	"CALLE 122"	"MERIDA"	"MERIDA"	"20.9810198"	"-89.6603457"
"GREGORIO TORRES QUINTERO"	"CALLE 35 353"	"MERIDA"	"MERIDA"	"20.9816962"	"-89.598195"
"JESUS AMARO GAMBOA"	"CALLE 32 238"	"MERIDA"	"MERIDA"	"20.9818064"	"-89.6803542"
"CENTRO BANCARIO DE DESARROLLO DE LA NIÑEZ-U-747"	"CALLE 37 353"	"MERIDA"	"MERIDA"	"20.9819681"	"-89.6122323"
"CRISTOBAL COLON DE YUCATAN-A.C."	"CALLE 37 516 E"	"MERIDA"	"MERIDA"	"20.9824776"	"-89.6228096"
"CRISTOBAL COLON DE YUCATAN-A.C."	"CALLE 37 516 E"	"MERIDA"	"MERIDA"	"20.9824776"	"-89.6228096"
"JOSE LOPEZ PORTILLO Y ROJAS"	"CALLE 39 74"	"MERIDA"	"MERIDA"	"20.9825627"	"-89.6276251"
"JOSE LOPEZ PORTILLO Y ROJAS"	"CALLE 39 74"	"MERIDA"	"MERIDA"	"20.9825627"	"-89.6276251"
"RUBEN DARIO HERRERA MARTINEZ"	"CALLE 37 520 B"	"MERIDA"	"MERIDA"	"20.9827291"	"-89.6244623"
"COLEGIO ESPAÑOL MEXICANO"	"CALLE 122 250"	"MERIDA"	"MERIDA"	"20.982884"	"-89.6567772"
"ANTONIO BETANCOURT PEREZ"	"CALLE 46 377"	"MERIDA"	"MERIDA"	"20.9830311"	"-89.5847551"
"LUIS PENICHE VALLADO"	"CALLE 47"	"MERIDA"	"MERIDA"	"20.9830658"	"-89.588932"
"IGNACIO ALLENDE"	"CALLE 18 96"	"CACALCHEN"	"CACALCHEN"	"20.983139"	"-89.227311"
"IGNACIO ALLENDE"	"CALLE 21 96"	"CACALCHEN"	"CACALCHEN"	"20.983139"	"-89.227311"
"JACINTO CANEK"	"CALLE 62"	"MERIDA"	"MERIDA"	"20.9835464"	"-89.6539448"
"CHRISDEN"	"CALLE 31 251 A"	"MERIDA"	"MERIDA"	"20.9845252"	"-89.6410388"
"MANUEL AVILA CAMACHO"	"CALLE 72 453"	"MERIDA"	"MERIDA"	"20.9845839"	"-89.6252334"
"COLEGIO NIÑOS DE AMERICA"	"CALLE 124-D 281"	"MERIDA"	"MERIDA"	"20.9846664"	"-89.6616822"
"COLEGIO NIÑOS DE AMERICA-A.C."	"CALLE 124-D 283"	"MERIDA"	"MERIDA"	"20.9846664"	"-89.6616822"
"BENITO JUAREZ GARCIA"	"CALLE 61 287"	"MERIDA"	"MERIDA"	"20.9847589"	"-89.6604045"
"MARIANO MATAMOROS"	"CALLE 22 320"	"MERIDA"	"MERIDA"	"20.9848376"	"-89.5748879"
"BADEN POWELL"	"AVENIDA ITZAES 257"	"MERIDA"	"MERIDA"	"20.9848441"	"-89.6397223"
"BADEN POWELL"	"CALLE 32 257"	"MERIDA"	"MERIDA"	"20.9848441"	"-89.6397223"
"BADEN POWELL"	"CALLE 32 257"	"MERIDA"	"MERIDA"	"20.9848441"	"-89.6397223"
"ELVIRA PARRA AVILA"	"CALLE 20"	"MERIDA"	"MERIDA"	"20.9852103"	"-89.574052"
"UH NAIL CHIICH"	"CALLE 29-A 302"	"MERIDA"	"MERIDA"	"20.9854061"	"-89.6042118"
"COLEGIO DEL BICENTENARIO"	"CALLE 12 204"	"MERIDA"	"MERIDA"	"20.9854329"	"-89.6291215"
"EMILIANO ZAPATA"	"CALLE 20"	"MERIDA"	"MERIDA"	"20.9855253"	"-89.5741722"
"JUAN GARCIA PONCE"	"CALLE 28-A"	"MERIDA"	"MERIDA"	"20.9855466"	"-89.6166728"
"ESTEFANIA CASTAÑEDA"	"CALLE 35 211"	"MERIDA"	"MERIDA"	"20.9857376"	"-89.5854836"
"SOLIDARIDAD"	"CALLE 26 160"	"MERIDA"	"MERIDA"	"20.9858068"	"-89.6751262"
"LILI"	"CALLE 31-D 283"	"MERIDA"	"MERIDA"	"20.9858552"	"-89.6029397"
"ALBINO J LOPE"	"CALLE 38 452"	"MERIDA"	"MERIDA"	"20.9862029"	"-89.6062903"
"COLEGIO VILLA INFANTIL IBERO"	"CALLE 14 160"	"MERIDA"	"MERIDA"	"20.9863148"	"-89.6299286"
"JENARO RODRIGUEZ CORREA"	"CALLE 20 201"	"MERIDA"	"MERIDA"	"20.9864875"	"-89.6330537"
"JENARO RODRIGUEZ CORREA"	"CALLE 22 200 A"	"MERIDA"	"MERIDA"	"20.9864875"	"-89.6330537"
"JENARO RODRIGUEZ CORREA"	"CALLE 22 200 A"	"MERIDA"	"MERIDA"	"20.9864875"	"-89.6330537"
"CENTRO ESCOLAR AMERICA LATINA"	"CALLE 31-D 285"	"MERIDA"	"MERIDA"	"20.9865309"	"-89.5985362"
"MODELO"	"CALLE 56-A 444"	"MERIDA"	"MERIDA"	"20.987116"	"-89.615453"
"MODELO"	"CALLE 56-A 444"	"MERIDA"	"MERIDA"	"20.987116"	"-89.615453"
"MIGUEL HIDALGO Y COSTILLA"	""	"CHEUMAN"	"MERIDA"	"20.9871836"	"-89.6540467"
"FELIPE CARRILLO PUERTO"	"AVENIDA COLON"	"MERIDA"	"MERIDA"	"20.987229"	"-89.6279613"
"IBEROAMERICANO"	"AVENIDA COLON 196 A"	"MERIDA"	"MERIDA"	"20.9872956"	"-89.6289941"
"COLEGIO IBEROAMERICANO"	""	"MERIDA"	"MERIDA"	"20.9872956"	"-89.6289941"
"COLEGIO DE MEXICO"	"CALLE 23-A SN"	"MERIDA"	"MERIDA"	"20.9875741"	"-89.637056"
"COLEGIO DE MEXICO"	"CALLE 23-A SN"	"MERIDA"	"MERIDA"	"20.9875741"	"-89.637056"
"EL CARRUSEL DE MERIDA"	"CALLE 23 209"	"MERIDA"	"MERIDA"	"20.9877404"	"-89.637897"
"LUCRECIA VADILLO RIVAS"	"CALLE 56-A 444"	"MERIDA"	"MERIDA"	"20.9878187"	"-89.6160655"
"GUARDERIA CAMARA DE COMERCIO"	"CALLE 35-A 401"	"MERIDA"	"MERIDA"	"20.987873"	"-89.5766603"
"ESCUELA SECUNDARIA TECNICA 72 \"VICTOR MANUEL CERVERA PACHECO\""	"CALLE 140"	"MERIDA"	"MERIDA"	"20.9882923"	"-89.6740418"
"TELESECUNDARIA NUM. 157"	"CALLE 22 270 B"	"MERIDA"	"MERIDA"	"20.9882923"	"-89.6740418"
"ESCUELA SECUNDARIA TECNICA NUM. 57"	"CALLE 22 NA"	"MERIDA"	"MERIDA"	"20.9882923"	"-89.6740418"
"VICENTE GUERRERO"	"CALLE 42"	"MERIDA"	"MERIDA"	"20.988404"	"-89.5792168"
"GUARDERIA Y JARDIN DE NIÑOS MONTESSORI ITZIMNA"	"CALLE 27-A 487"	"MERIDA"	"MERIDA"	"20.988564"	"-89.614382"
"FEDERACION DE TRABAJADORES DEL ESTADO DE YUCATAN"	"CALLE 33 371 A"	"MERIDA"	"MERIDA"	"20.9885708"	"-89.5743331"
"CENTRO EDUCATIVO INFANTIL MI ESCUELITA"	"CALLE 16 338 A"	"MERIDA"	"MERIDA"	"20.9886767"	"-89.610101"
"COLEGIO REGIONAL DE MEXICO UNIDAD BRISAS"	"CALLE 26 104"	"MERIDA"	"MERIDA"	"20.988722"	"-89.584374"
"COLEGIO REGIONAL DE MEXICO UNIDAD BRISAS"	"CALLE 26 112"	"MERIDA"	"MERIDA"	"20.988722"	"-89.584374"
"ROSA TORRES"	"CALLE 22"	"MERIDA"	"MERIDA"	"20.9888276"	"-89.6178195"
"EMILIANO ZAPATA"	"CALLE 60 839"	"MERIDA"	"MERIDA"	"20.9890464"	"-89.6911162"
"NIÑOS HEROES"	"CALLE 39"	"MERIDA"	"MERIDA"	"20.989084"	"-89.5865268"
"ANTONIO BUSTILLOS CARRILLO"	"CALLE 33 371 A"	"MERIDA"	"MERIDA"	"20.9891258"	"-89.5757684"
"IGNACIO ZARAGOZA"	"CALLE 21-A 82"	"MERIDA"	"MERIDA"	"20.9894834"	"-89.6095535"
"IGNACIO ZARAGOZA"	"CALLE 21-A 82"	"MERIDA"	"MERIDA"	"20.9894834"	"-89.6095535"
"SANTIAGO PACHECO CRUZ"	"CALLE 31-A"	"MERIDA"	"MERIDA"	"20.9897432"	"-89.5664148"
"COLEGIO AMERICA DE MERIDA"	"CALLE 56-A 493"	"MERIDA"	"MERIDA"	"20.9899117"	"-89.6173936"
"COLEGIO AMERICA DE MERIDA"	"CALLE 58-A 493"	"MERIDA"	"MERIDA"	"20.9899117"	"-89.6173936"
"COLEGIO AMERICA DE MERIDA"	"CALLE 58-A 493"	"MERIDA"	"MERIDA"	"20.9899117"	"-89.6173936"
"LEOPOLDO AGUILAR ROCA"	"CALLE 19 287"	"MERIDA"	"MERIDA"	"20.9902581"	"-89.6436339"
"COLEGIO EDUCATIVO BRISAS"	"CALLE 16 101 B"	"MERIDA"	"MERIDA"	"20.9905"	"-89.580514"
"COLEGIO EDUCATIVO BRISAS"	"CALLE 16 101 B"	"MERIDA"	"MERIDA"	"20.9905"	"-89.580514"
"ENFANT"	"CALLE 19 78"	"MERIDA"	"MERIDA"	"20.9907029"	"-89.6059171"
"ONECIFORO BURGOS CONCHA"	"CALLE 12"	"TIXKOKOB"	"TIXKOKOB"	"20.9907572"	"-89.3921539"
"ZAZIL BE"	"CALLE 31-B"	"MERIDA"	"MERIDA"	"20.990827"	"-89.592187"
"DAVID VIVAS ROMERO"	"CALLE 6 (AVENIDA CUPULES) 64"	"MERIDA"	"MERIDA"	"20.9908482"	"-89.6245395"
"INSTITUTO MEXICO"	"CALLE 19 327 C"	"MERIDA"	"MERIDA"	"20.9908679"	"-89.6470531"
"INSTITUTO MEXICO"	"CALLE 50 290"	"MERIDA"	"MERIDA"	"20.9908679"	"-89.6470531"
"INSTITUTO MEXICO DE MERIDA"	"CALLE 50 290"	"MERIDA"	"MERIDA"	"20.9908679"	"-89.6470531"
"ABELARDO TRUJILLO"	"CALLE 15 209"	"MERIDA"	"MERIDA"	"20.991032"	"-89.6348064"
"ESTADO DE YUCATAN"	""	"CHAN CENOTE"	"TIZIMIN"	"20.9911111"	"-87.7849999"
"ALFONSO N URUETA CARRILLO"	"CALLE 31-D"	"MERIDA"	"MERIDA"	"20.9911353"	"-89.5930786"
"ALFONSO N URUETA CARRILLO"	"CALLE 98 511 C"	"MERIDA"	"MERIDA"	"20.9911353"	"-89.5930786"
"ESCUELA SECUNDARIA TECNICA NUM. 56"	"CALLE 26-B"	"MERIDA"	"MERIDA"	"20.9915277"	"-89.5749887"
"ESCUELA SECUNDARIA TECNICA NUM. 56"	"CALLE 26-B"	"MERIDA"	"MERIDA"	"20.9915277"	"-89.5749887"
"PRIMITIVO ANTONIO RUBIO AVILA"	"CALLE 140"	"MERIDA"	"MERIDA"	"20.9918514"	"-89.6724357"
"JUAN RAMON VEGA CAMARA"	"CALLE 140"	"MERIDA"	"MERIDA"	"20.991997"	"-89.6727312"
"SANTIAGO BURGOS BRITO"	"CALLE 21 82 A"	"MERIDA"	"MERIDA"	"20.9920977"	"-89.6230431"
"ANTONIO MEDIZ BOLIO"	"CALLE 50"	"POPOLNAH"	"TIZIMIN"	"20.9921428"	"-87.5642318"
"ANTONIO MEDIZ BOLIO"	""	"POPOLNAH"	"TIZIMIN"	"20.9921428"	"-87.5642318"
"ADOLFO CISNEROS CAMARA"	"CALLE 12"	"MERIDA"	"MERIDA"	"20.9923097"	"-89.5912609"
"NELLY OJEDA FERNANDEZ DE RENDON"	"CALLE 67 760"	"MERIDA"	"MERIDA"	"20.992454"	"-89.6898695"
"CHAMPAGNAT"	"CALLE 19 99"	"MERIDA"	"MERIDA"	"20.9926156"	"-89.6106585"
"COLEGIO MONTEJO"	"CALLE 19 99"	"MERIDA"	"MERIDA"	"20.9926156"	"-89.6106585"
"UN MUNDO FELIZ"	"CALLE 15 346"	"MERIDA"	"MERIDA"	"20.9928775"	"-89.6477173"
"CENTRO EDUCATIVO SONRISAS"	"CALLE 45 8"	"MERIDA"	"MERIDA"	"20.9935221"	"-89.569551"
"ANGELA GONZALEZ DE MENENDEZ"	"CALLE 48"	"POPOLNAH"	"TIZIMIN"	"20.9937659"	"-87.5620158"
"CRI-CRI"	"CALLE 27 150"	"MERIDA"	"MERIDA"	"20.993776"	"-89.594773"
"CENTRO DE ESTUDIOS MERIDA"	""	"MERIDA"	"MERIDA"	"20.9940612"	"-89.6290449"
"FELIPE CARRILLO PUERTO"	"CALLE 111-A"	"MERIDA"	"MERIDA"	"20.9941982"	"-89.6024488"
"FELIPE CARRILLO PUERTO"	"CALLE 111-A"	"MERIDA"	"MERIDA"	"20.9941982"	"-89.6024488"
"ELOISA PATRON DE ROSADO"	"CALLE 17 101 E"	"MERIDA"	"MERIDA"	"20.9942602"	"-89.6115571"
"ELOISA PATRON DE ROSADO-A.C."	"CALLE 17 101 E"	"MERIDA"	"MERIDA"	"20.9942602"	"-89.6115571"
"ELOISA PATRON DE ROSADO"	"CALLE 17 102"	"MERIDA"	"MERIDA"	"20.9942602"	"-89.6115571"
"ANTONIO MARTINEZ DE CASTRO"	"CALLE 53 556"	"MERIDA"	"MERIDA"	"20.9943302"	"-89.6647831"
"EMERITENSE"	"AVENIDA CUPULES 192"	"MERIDA"	"MERIDA"	"20.9945283"	"-89.6297069"
"PRIMARIA EDUCREA"	"CARRETERA MERIDA-CAUCEL KM. 7"	"MERIDA"	"MERIDA"	"20.9946437"	"-89.694134"
"MUNDO MAGICO"	"CALLE 42 153 A"	"MERIDA"	"MERIDA"	"20.9946855"	"-89.6426722"
"CENTRO ESCOLAR EMERITENSE"	"CALLE 42 155"	"MERIDA"	"MERIDA"	"20.9946855"	"-89.6426722"
"CREATIVIDAD EN LA EDUCACION"	"CALLE 23 209"	"MERIDA"	"MERIDA"	"20.994858"	"-89.596928"
"ICHCAANSIHO"	"CALLE 132-A"	"MERIDA"	"MERIDA"	"20.9948787"	"-89.6652303"
"CENTRO EDUCATIVO INFANTIL DONALD"	"CALLE 59 634"	"MERIDA"	"MERIDA"	"20.9949375"	"-89.6929646"
"FELIPE CARRILLO PUERTO"	"CALLE 112 735"	"MERIDA"	"MERIDA"	"20.9949422"	"-89.6015777"
"JOSE MARIA MORELOS Y PAVON"	"CALLE 20 101"	"MERIDA"	"MERIDA"	"20.9952405"	"-89.6260116"
"MIS PRIMERAS LETRAS"	"CALLE 57 619"	"MERIDA"	"MERIDA"	"20.9954277"	"-89.6907064"
"PRINCIPITOS"	"CALLE 26 121"	"MERIDA"	"MERIDA"	"20.9955717"	"-89.614302"
"PRINCIPITOS"	"CALLE 26 89 I"	"MERIDA"	"MERIDA"	"20.9955717"	"-89.614302"
"ISOLINA PEREZ CASTILLO"	"CALLE 6 39"	"MERIDA"	"MERIDA"	"20.995582"	"-89.6012581"
"HEIDI"	"CALLE 14 88"	"MERIDA"	"MERIDA"	"20.9957525"	"-89.6060784"
"HEIDI"	"CALLE 14 88"	"MERIDA"	"MERIDA"	"20.9957525"	"-89.6060784"
"JESUS MANUEL IBARRA PEIRO"	"CALLE 48"	"MERIDA"	"MERIDA"	"20.9957732"	"-89.5802874"
"FELIPE CARRILLO PUERTO"	"CALLE 98 511 C"	"MERIDA"	"MERIDA"	"20.9957878"	"-89.6009212"
"VICTOR MANUEL ALAYOLA ROSAS"	"CALLE 26 121"	"MERIDA"	"MERIDA"	"20.9959911"	"-89.6143228"
"CENDI Y JARDIN EL MUNDO DE LOS NIÑOS"	"CALLE 23-A 323"	"MERIDA"	"MERIDA"	"20.996237"	"-89.5942216"
"JACINTO UC DE LOS SANTOS"	"CALLE 59 676"	"MERIDA"	"MERIDA"	"20.9963572"	"-89.7018441"
"CARLOS CARRILLO VEGA"	"CALLE 96"	"MERIDA"	"MERIDA"	"20.9964181"	"-89.7097055"
"CARLOS CARRILLO VEGA"	"CALLE 96"	"MERIDA"	"MERIDA"	"20.9964181"	"-89.7097055"
"CARLOS CARRILLO VEGA"	"CALLE 96"	"MERIDA"	"MERIDA"	"20.9964181"	"-89.7097055"
"CARLOS CARRILLO VEGA"	"CALLE 96"	"MERIDA"	"MERIDA"	"20.9964181"	"-89.7097055"
"JARDIN DE NIÑOS ITZIMNA"	"CALLE 11 203"	"MERIDA"	"MERIDA"	"20.9977196"	"-89.6145314"
"CENTRO EDUCATIVO IRLANDES"	"CALLE 31 144"	"MERIDA"	"MERIDA"	"20.9978031"	"-89.6200941"
"CENTRO EDUCATIVO IRLANDES"	"CALLE 31 144"	"MERIDA"	"MERIDA"	"20.9978031"	"-89.6200941"
"CENTRO EDUCATIVO ITZIMNA"	"CALLE 11 203"	"MERIDA"	"MERIDA"	"20.9978373"	"-89.6145591"
"AGUSTIN YAÑEZ"	""	"MERIDA"	"MERIDA"	"20.9979343"	"-89.554713"
"SALVADOR DIAZ MIRON"	""	"EUAN"	"TIXKOKOB"	"20.9983409"	"-89.3416977"
"CEPAI"	"CALLE 48-B 432"	"MERIDA"	"MERIDA"	"20.9983785"	"-89.5860379"
"COLEGIO EVEREST"	"CALLE 29 73"	"MERIDA"	"MERIDA"	"20.9983952"	"-89.6071292"
"INSTITUTO DE DESARROLLO INTEGRAL CRECE"	"CALLE 75 374 A"	"MERIDA"	"MERIDA"	"20.9985282"	"-89.6645036"
"FEDERICK HERBART MERIDA"	"CALLE 44 584"	"MERIDA"	"MERIDA"	"20.9990768"	"-89.5765533"
"COLEGIO FEDERICK HERBART MERIDA"	"CALLE 44 584"	"MERIDA"	"MERIDA"	"20.9990768"	"-89.5765533"
"MARIA HELENA CHANES"	"CALLE 3-A 274"	"MERIDA"	"MERIDA"	"20.9993772"	"-89.6433306"
"EL MUNDO DE LOS TRAVIESOS"	"CALLE 32 199"	"MERIDA"	"MERIDA"	"20.9996389"	"-89.6367591"
"CRECE PEQUEÑIN"	"CALLE 5-C 516"	"MERIDA"	"MERIDA"	"20.9996546"	"-89.6545375"
"JARDINES"	"CALLE 23 710"	"MERIDA"	"MERIDA"	"20.9998101"	"-89.5895764"
"LUZ Y VERDAD"	""	"TIXCUYTUN"	"MERIDA"	"20.999828"	"-89.5991136"
"COLEGIO JARDINES"	"CALLE 23 710"	"MERIDA"	"MERIDA"	"20.9998466"	"-89.5895241"
"COLEGIO JARDINES"	"CALLE 23 710"	"MERIDA"	"MERIDA"	"20.9998466"	"-89.5895241"
"JOSE MONTES DE OCA"	"CALLE 36 272 C"	"MERIDA"	"MERIDA"	"20.9999271"	"-89.6424407"
"BLANCA SANCHEZ PINTO"	"CALLE 36 272 C"	"MERIDA"	"MERIDA"	"20.9999407"	"-89.6422328"
"NORBET"	"CALLE 29 147"	"MERIDA"	"MERIDA"	"21.000205"	"-89.6173593"
"ROCHAVI PENSIONES"	"CALLE 76 531"	"MERIDA"	"MERIDA"	"21.0006623"	"-89.6621167"
"ROCHAVI PENSIONES"	"CALLE 76 531"	"MERIDA"	"MERIDA"	"21.0006623"	"-89.6621167"
"REMIGIO AGUILAR SOSA"	"CALLE 27 150"	"MERIDA"	"MERIDA"	"21.0007198"	"-89.617448"
"INSTITUTO TIERRA Y LIBERTAD"	"CALLE 5 589"	"MERIDA"	"MERIDA"	"21.0008969"	"-89.6572616"
"IGNACIO MANUEL ALTAMIRANO"	"CALLE 31 343"	"MERIDA"	"MERIDA"	"21.0014841"	"-89.5744967"
"COMUNIDAD EDUCATIVA YAXUNAH"	"CALLE 43 383"	"MERIDA"	"MERIDA"	"21.0015293"	"-89.6375035"
"COMUNIDAD EDUCATIVA YAXUNAH"	"CALLE 43 383"	"MERIDA"	"MERIDA"	"21.0015293"	"-89.6375035"
"JUANA FIGUEROA"	"CALLE 16"	"MERIDA"	"MERIDA"	"21.0016888"	"-89.6296995"
"ROBERTO QUIROZ GUERRA"	"CALLE 25"	"MERIDA"	"MERIDA"	"21.0017796"	"-89.6560815"
"ROBERTO QUIROZ GUERRA"	"CALLE 45"	"MERIDA"	"MERIDA"	"21.0017796"	"-89.6560815"
"ESFUERZO POPULAR"	"CALLE 27"	"MERIDA"	"MERIDA"	"21.0018544"	"-89.5683859"
"SEÑEROS"	"CALLE 27 256"	"MERIDA"	"MERIDA"	"21.0020798"	"-89.5667937"
"COLEGIO DINA BELANGER"	"CALLE 32 111"	"MERIDA"	"MERIDA"	"21.0023233"	"-89.6165678"
"AQUILES SERDAN"	"CALLE 21"	"TIXKOKOB"	"TIXKOKOB"	"21.0025752"	"-89.395103"
"MI SEGUNDO HOGAR"	"CALLE 28 278"	"MERIDA"	"MERIDA"	"21.002922"	"-89.6492592"
"JUAN JACOBO ROUSSEAU"	"CALLE 10 216"	"MERIDA"	"MERIDA"	"21.002944"	"-89.57124"
"CESAREO REMIRO MUNARRIZ-A.C."	"CALLE 17 62"	"MERIDA"	"MERIDA"	"21.0031377"	"-89.6061254"
"ESCUELA HOGAR DE MERIDA"	"CALLE 17 62"	"MERIDA"	"MERIDA"	"21.0032062"	"-89.6061806"
"EXPRESION CREATIVA"	"CALLE 18 101"	"MERIDA"	"MERIDA"	"21.0032964"	"-89.6095595"
"COLEGIO CONTINENTAL"	"CALLE 35 203"	"MERIDA"	"MERIDA"	"21.0034135"	"-89.6346555"
"MARIA LUISA PEREZ MIJANGOS"	"CALLE 29"	"MERIDA"	"MERIDA"	"21.0035765"	"-89.5734933"
"ICHCAANZIHO"	"CALLE 44"	"MERIDA"	"MERIDA"	"21.0038999"	"-89.5851041"
"JARDIN DE NIÑOS ANGELES"	"CALLE 38 45"	"MERIDA"	"MERIDA"	"21.0039559"	"-89.6204047"
"COLEGIO PENINSULAR"	"CALLE 21 131"	"MERIDA"	"MERIDA"	"21.0039829"	"-89.6170113"
"COLEGIO PENINSULAR"	"CALLE 21 131"	"MERIDA"	"MERIDA"	"21.0039829"	"-89.6170113"
"COLEGIO PENINSULAR"	"CALLE 21 131"	"MERIDA"	"MERIDA"	"21.0039829"	"-89.6170113"
"CONSORCIO EDUCATIVO DEL MAYAB BVU-1344"	"CALLE 7 365"	"MERIDA"	"MERIDA"	"21.0041031"	"-89.5895404"
"CENTRO EDUCATIVO MUL BIN"	"CALLE 21 DIAGONAL 270"	"MERIDA"	"MERIDA"	"21.004108"	"-89.6531646"
"CENDI NOEL"	"CALLE 31 680"	"MERIDA"	"MERIDA"	"21.0042515"	"-89.6991001"
"MANUEL CEPEDA PERAZA"	"CALLE 33"	"MERIDA"	"MERIDA"	"21.0042783"	"-89.630061"
"NIDIA BETANCOURT DE AYALA"	"CALLE 11"	"MERIDA"	"MERIDA"	"21.0045503"	"-89.5967258"
"INSTITUTO EDUCATIVO BAMBINO"	"CALLE 70 603 C-D"	"MERIDA"	"MERIDA"	"21.0047598"	"-89.6926295"
"INSTITUTO EDUCATIVO BAMBINO"	"CALLE 70 603 C-D"	"MERIDA"	"MERIDA"	"21.0047598"	"-89.6926295"
"JARDIN DE NIÑOS CONTINENTAL"	"CALLE 21 40"	"MERIDA"	"MERIDA"	"21.0047618"	"-89.5635864"
"PABLO MORENO Y TRIAY"	"CALLE 21"	"MERIDA"	"MERIDA"	"21.0049053"	"-89.6515921"
"PABLO MORENO Y TRIAY"	"CALLE 29-B 276"	"MERIDA"	"MERIDA"	"21.0049053"	"-89.6515921"
"SERAPIO RENDON"	"CALLE 30 195"	"HUNUCMA"	"HUNUCMA"	"21.0049102"	"-89.8799016"
"INSTITUTO MEXICO CAUCEL"	"CALLE 31 697 B"	"MERIDA"	"MERIDA"	"21.0049388"	"-89.7008491"
"INSTITUTO MEXICO CAUCEL"	"CALLE 31 697 B"	"MERIDA"	"MERIDA"	"21.0049388"	"-89.7008491"
"INSTITUTO MEXICO CAUCEL"	"CALLE 31 697 B"	"MERIDA"	"MERIDA"	"21.0049388"	"-89.7008491"
"NARCEDALIA GARCIA AGUILAR"	"CALLE 39 810"	"MERIDA"	"MERIDA"	"21.0049763"	"-89.715942"
"NARCEDALIA GARCIA AGUILAR"	"CALLE 39 810 NA"	"MERIDA"	"MERIDA"	"21.0049763"	"-89.715942"
"NARCEDALIA GARCIA AGUILAR"	"CALLE 67 437 B"	"MERIDA"	"MERIDA"	"21.0049763"	"-89.715942"
"NARCEDALIA GARCIA AGUILAR"	"CALLE 67 437 B"	"MERIDA"	"MERIDA"	"21.0049763"	"-89.715942"
"CECILIO CHI"	"CALLE 22 223 NA"	"ESPITA"	"ESPITA"	"21.0051625"	"-88.3071492"
"LEANDRO VALLE"	"CALLE 21 DIAGONAL 257"	"MERIDA"	"MERIDA"	"21.0051704"	"-89.6523002"
"ERMILO ABREU GOMEZ"	"CALLE 9 392"	"MERIDA"	"MERIDA"	"21.0052298"	"-89.5929006"
"ARMANDO E GOROCICA PUERTO"	"CALLE 24 93"	"TIXKOKOB"	"TIXKOKOB"	"21.0053322"	"-89.3957033"
"ARMANDO E GOROCICA PUERTO"	"CALLE 24 93"	"TIXKOKOB"	"TIXKOKOB"	"21.0053322"	"-89.3957033"
"MANOS MAGICAS"	"CALLE 40 431"	"MERIDA"	"MERIDA"	"21.0054824"	"-89.5815023"
"CONCEPCION GONZALEZ NARANJO"	"CALLE 21 DIAGONAL 225"	"MERIDA"	"MERIDA"	"21.0055797"	"-89.6512997"
"CAMPESTRE"	"CALLE 15 134"	"MERIDA"	"MERIDA"	"21.0056743"	"-89.6156921"
"CENTRO EDUCATIVO NOEL SOUZA CARVAJAL"	"CALLE 31 778"	"MERIDA"	"MERIDA"	"21.0056886"	"-89.7087489"
"CECILIO CHI"	"CALLE 20"	"ESPITA"	"ESPITA"	"21.0057062"	"-88.3056301"
"MONTESSORI LANCASTER"	"CALLE 15 127 A"	"MERIDA"	"MERIDA"	"21.005832"	"-89.613466"
"CENTRO BILINGÜE INFANTIL"	"CALLE 15 326"	"MERIDA"	"MERIDA"	"21.0064214"	"-89.6227737"
"CENTRO EDUCATIVO CALVARY"	"CALLE 27 359"	"MERIDA"	"MERIDA"	"21.006593"	"-89.646305"
"CENTRO EDUCATIVO CALVARY"	"CALLE 27 359"	"MERIDA"	"MERIDA"	"21.006593"	"-89.646305"
"CENTRO EDUCATIVO CALVARY"	"CALLE 27 359"	"MERIDA"	"MERIDA"	"21.006593"	"-89.646305"
"INSTITUTO MODERNO AMERICANO"	"CALLE 27"	"MERIDA"	"MERIDA"	"21.0070956"	"-89.5738449"
"INSTITUTO MODERNO AMERICANO"	"CALLE 28 202 A"	"MERIDA"	"MERIDA"	"21.0070956"	"-89.5738449"
"CENTRO EDUCATIVO LAROUSSE"	"CALLE 24 121"	"MERIDA"	"MERIDA"	"21.0072718"	"-89.6374954"
"INSTITUTO TIERRA MAGICA"	"CALLE 31 804 A"	"MERIDA"	"MERIDA"	"21.007498"	"-89.7127012"
"INSTITUTO SAVIA"	"CALLE 23-A 301"	"MERIDA"	"MERIDA"	"21.0081218"	"-89.6441007"
"INSTITUTO SAVIA"	"CALLE 23-A 301"	"MERIDA"	"MERIDA"	"21.0081218"	"-89.6441007"
"JUAN PABLO SABIDO SOSA"	"CALLE 27-A"	"MERIDA"	"MERIDA"	"21.0082461"	"-89.660089"
"HUMBERTO LARA Y LARA"	"CALLE 23 CARRETERA MERIDA-CAUCEL"	"CAUCEL"	"MERIDA"	"21.0085616"	"-89.6949986"
"JUANA DE ASBAJE"	"CALLE 17-A 101"	"MERIDA"	"MERIDA"	"21.0085873"	"-89.5869434"
"JUANA DE ASBAJE"	"CALLE 17-A 101"	"MERIDA"	"MERIDA"	"21.0085873"	"-89.5869434"
"JUANA DE ASBAJE"	"CALLE 17-A 101"	"MERIDA"	"MERIDA"	"21.0085873"	"-89.5869434"
"CENTRO EDUCATIVO RENACIMIENTO"	"CALLE 16 61"	"MERIDA"	"MERIDA"	"21.008601"	"-89.599584"
"RICARDO FLORES MAGON"	"CALLE 21 102 B"	"TELCHAC"	"TELCHAC PUEBLO"	"21.0087889"	"-89.4236516"
"FRANCISCO GONZALEZ BOCANEGRA"	"CALLE 23"	"MERIDA"	"MERIDA"	"21.0089832"	"-89.6576274"
"COLEGIO MERIDA"	"CARRETERA A PROGRESO KILOMETRO 4.5"	"MERIDA"	"MERIDA"	"21.0094888"	"-89.6242818"
"COLEGIO MERIDA"	"CARRETERA A PROGRESO KILOMETRO 4.5"	"MERIDA"	"MERIDA"	"21.0094888"	"-89.6242818"
"MARCIAL NOVELO BRICEÑO"	"CALLE 32 272"	"MERIDA"	"MERIDA"	"21.0095964"	"-89.6442375"
"MIGUEL HIDALGO"	"CALLE 25-A 455"	"MERIDA"	"MERIDA"	"21.0098173"	"-89.6601218"
"MIGUEL HIDALGO"	"CALLE 25-A 455"	"MERIDA"	"MERIDA"	"21.0098173"	"-89.6601218"
"NIÑOS HEROES"	"CALLE 18 89"	"MERIDA"	"MERIDA"	"21.0099638"	"-89.5659233"
"ALVARO OBREGON"	"CALLE 41"	"HUNUCMA"	"HUNUCMA"	"21.0106354"	"-89.8848739"
"PRUDENCIO PATRON PENICHE"	"CALLE 25 198 A"	"ESPITA"	"ESPITA"	"21.0106911"	"-88.3059719"
"MEXICO"	"CALLE 30-B"	"MERIDA"	"MERIDA"	"21.0107614"	"-89.6119793"
"MEXICO"	""	"NOLO"	"TIXKOKOB"	"21.0107928"	"-89.4233797"
"ALVARO OBREGON"	"CALLE 41 NA"	"HUNUCMA"	"HUNUCMA"	"21.0108036"	"-89.8849419"
"LORENZO DE ZAVALA"	"CALLE 41 208"	"HUNUCMA"	"HUNUCMA"	"21.0109374"	"-89.8876792"
"ANTONIO VIVALDI"	"CALLE 19-A1 350"	"MERIDA"	"MERIDA"	"21.0109846"	"-89.6544891"
"INSTITUTO OSSO DE YUCATAN"	"CALLE 5-A 289"	"MERIDA"	"MERIDA"	"21.0109998"	"-89.6210461"
"CENTRO EDUCATIVO SIGLO XXI"	"CALLE 21 216"	"MERIDA"	"MERIDA"	"21.0111317"	"-89.5728629"
"CENTRO EDUCATIVO PEQUEMUNDO"	"CALLE 21 DIAGONAL 374"	"MERIDA"	"MERIDA"	"21.0114758"	"-89.6498926"
"ESCUELA MONTESSORI DE YUCATAN"	"CALLE 1-H 302"	"MERIDA"	"MERIDA"	"21.012246"	"-89.619103"
"ADOLFO LOPEZ MATEOS"	"CALLE 19 130"	"KANASIN"	"KANASIN"	"21.0122892"	"-89.6012155"
"ADOLFO LOPEZ MATEOS"	"CALLE 19 130"	"KANASIN"	"KANASIN"	"21.0122892"	"-89.6012155"
"AMEYALI"	"CALLE 21 111 C"	"MERIDA"	"MERIDA"	"21.0123875"	"-89.6376426"
"JAIME NUNO"	"CALLE 25"	"CAUCEL"	"MERIDA"	"21.0124186"	"-89.7026694"
"CRISMAR"	"CALLE 24 222"	"HUNUCMA"	"HUNUCMA"	"21.0126719"	"-89.8734418"
"FRANCISCO BATES"	"CALLE 14"	"CAUCEL"	"MERIDA"	"21.0130016"	"-89.7022688"
"HUMBERTO LARA Y LARA"	"CALLE 18 181"	"HUNUCMA"	"HUNUCMA"	"21.0130928"	"-89.8678421"
"COLEGIO LIBANES PENINSULAR"	"CALLE 1-E 99"	"MERIDA"	"MERIDA"	"21.0132185"	"-89.6072501"
"COLEGIO LIBANES PENINSULAR"	"CALLE 1-E 99"	"MERIDA"	"MERIDA"	"21.0132185"	"-89.6072501"
"COLEGIO LIBANES PENINSULAR"	"CALLE 1-E 99"	"MERIDA"	"MERIDA"	"21.0132185"	"-89.6072501"
"BERNABE ARGAEZ MILANES"	"CALLE 20 113"	"MERIDA"	"MERIDA"	"21.0132692"	"-89.6321196"
"BERNABE ARGAEZ MILANES"	"CALLE 20 113"	"MERIDA"	"MERIDA"	"21.0132692"	"-89.6321196"
"BICENTENARIO INDEPENDENCIA DE MEXICO"	"CALLE 12 DIAGONAL 323"	"MERIDA"	"MERIDA"	"21.0136013"	"-89.5862917"
"EVOLUCION SOCIAL"	"CALLE 30 350"	"MERIDA"	"MERIDA"	"21.0137296"	"-89.6112341"
"INSTITUTO EDUCATIVO CAMPESTRE"	"CALLE 15 159"	"MERIDA"	"MERIDA"	"21.0145571"	"-89.597013"
"JUAN DE DIOS PEZA"	"CALLE 37 209"	"HUNUCMA"	"HUNUCMA"	"21.0146977"	"-89.8896529"
"JUSTO SIERRA MENDEZ"	"CALLE 24 103 A"	"CAUCEL"	"MERIDA"	"21.0147763"	"-89.7105256"
"CARMEN COSGAYA RIVAS"	"CALLE 33 209"	"HUNUCMA"	"HUNUCMA"	"21.0151018"	"-89.8781348"
"FELICIANO CANUL REYES"	"CALLE 26"	"HUNUCMA"	"HUNUCMA"	"21.0151879"	"-89.8750499"
"JULIA MARTIN ALONZO"	"CALLE 17 93"	"MERIDA"	"MERIDA"	"21.0152121"	"-89.6283879"
"CUMBRES"	"CALLE 5"	"MERIDA"	"MERIDA"	"21.0152504"	"-89.5922808"
"JUAN GARCIA PONCE"	"CALLE 17 266"	"MERIDA"	"MERIDA"	"21.0154163"	"-89.5703848"
"OSITOS FELICES"	"CALLE 17 266"	"MERIDA"	"MERIDA"	"21.0154982"	"-89.5704401"
"NIÑOS EN ACCION"	"CALLE 17 101 O"	"MERIDA"	"MERIDA"	"21.0155461"	"-89.6322493"
"CONCEPCION CASTRO ANDRADE"	"CALLE 11 2"	"MERIDA"	"MERIDA"	"21.015563"	"-89.5799365"
"JOSE DE LA LUZ MENA ALCOCER"	"CALLE 14 35"	"MERIDA"	"MERIDA"	"21.0163273"	"-89.6264829"
"JOSE DE LA LUZ MENA ALCOCER"	"CALLE 65 272 B"	"MERIDA"	"MERIDA"	"21.0164953"	"-89.6264618"
"EDAI FREINET"	"CALLE 19 522"	"MERIDA"	"MERIDA"	"21.016561"	"-89.570235"
"EDUCACION ACTIVA E INTEGRAL FREINET"	"CALLE 19 524"	"MERIDA"	"MERIDA"	"21.016561"	"-89.570235"
"JOSE C PENICHE FAJARDO"	"CALLE 16"	"CAUCEL"	"MERIDA"	"21.0166444"	"-89.7054143"
"JOSE C PENICHE FAJARDO"	"CALLE 16"	"CAUCEL"	"MERIDA"	"21.0166444"	"-89.7054143"
"MUNDO INFANTIL"	"CALLE 40"	"MERIDA"	"MERIDA"	"21.0166625"	"-89.6472137"
"FRAY DIEGO DE LANDA"	"CALLE 29 199"	"HUNUCMA"	"HUNUCMA"	"21.0174364"	"-89.87726"
"JOSE LEON BOJORQUEZ GARCIA"	"CALLE 33 NA"	"HUNUCMA"	"HUNUCMA"	"21.0181394"	"-89.8753354"
"GONZALO GUERRERO"	"CALLE 38-A 79 A"	"MERIDA"	"MERIDA"	"21.0183157"	"-89.6460138"
"JOSEFA CENTENO ROSADO"	"CALLE 26 91 A"	"MERIDA"	"MERIDA"	"21.0187544"	"-89.6382384"
"DESARROLLADORA DE GENIOS"	"CALLE 17-A 377"	"MERIDA"	"MERIDA"	"21.0192442"	"-89.5697286"
"INSTITUTO JOSE MARTI"	"CALLE 26 91 A"	"MERIDA"	"MERIDA"	"21.0192588"	"-89.6376959"
"JOSE MARTI"	"CALLE 26 91 A"	"MERIDA"	"MERIDA"	"21.0192588"	"-89.6376959"
"FELIPE CARRILLO PUERTO"	"CALLE 13"	"MERIDA"	"MERIDA"	"21.0193062"	"-89.6271117"
"ADOLFO CISNEROS CAMARA"	"CALLE 90"	"MERIDA"	"MERIDA"	"21.0193886"	"-89.6180894"
"ANALTE"	"CALLE 20"	"TEKAL DE VENEGAS"	"TEKAL DE VENEGAS"	"21.0194422"	"-88.944027"
"INSTITUTO MILITARIZADO DEL SURESTE"	""	"MERIDA"	"MERIDA"	"21.020029"	"-89.560361"
"PLAN DE AYALA"	"CALLE 8"	"MERIDA"	"MERIDA"	"21.0200343"	"-89.6231929"
"SANTIAGO PACHECO CRUZ"	"CALLE 46"	"MERIDA"	"MERIDA"	"21.0201057"	"-89.6495147"
"AGUSTIN FRANCO VILLANUEVA"	"CALLE 169 318"	"MERIDA"	"MERIDA"	"21.0201809"	"-89.6563128"
"MANUEL ALCALA MARTIN"	"CALLE 52"	"MERIDA"	"MERIDA"	"21.0201809"	"-89.6563128"
"REINO INFANTIL"	"CALLE 20 248"	"MERIDA"	"MERIDA"	"21.0204519"	"-89.6314299"
"CENTRO ESCOLAR NUEVO MEXICO"	"CALLE 13 106 D"	"MERIDA"	"MERIDA"	"21.0204991"	"-89.6380472"
"CENTRO DE ESTIMULACION TEMPRANA MERIDA"	"CALLE 13 106 C"	"MERIDA"	"MERIDA"	"21.0205012"	"-89.6380696"
"TUM BEN HA"	"CALLE 24 141"	"ESPITA"	"ESPITA"	"21.0205997"	"-88.3051744"
"CENTRO DE ENSEÑANZA EL CASTAÑAR"	"CALLE 40 310"	"MERIDA"	"MERIDA"	"21.020654"	"-89.646533"
"EL CASTAÑAR"	"CALLE 40 310"	"MERIDA"	"MERIDA"	"21.020654"	"-89.646533"
"INSTITUTO CASTAÑAR"	"CALLE 40 310"	"MERIDA"	"MERIDA"	"21.020654"	"-89.646533"
"JEANNE DE MATEL"	"CALLE 26 163 A"	"HUNUCMA"	"HUNUCMA"	"21.0210349"	"-89.8690617"
"LUZ OLIVEROS SARMINA"	"CALLE 36"	"MERIDA"	"MERIDA"	"21.0213702"	"-89.6094275"
"FELIPE CARRILLO PUERTO"	"CALLE 31 199"	"HUNUCMA"	"HUNUCMA"	"21.0216834"	"-89.8887143"
"PABLO MORENO"	"CALLE 26 165"	"HUNUCMA"	"HUNUCMA"	"21.0216897"	"-89.8691468"
"SAN AGUSTIN"	"CALLE 58 484"	"MERIDA"	"MERIDA"	"21.021727"	"-89.655921"
"EMILIANO ZAPATA"	"CALLE 19"	"CALOTMUL"	"CALOTMUL"	"21.0219552"	"-88.1781606"
"HECTOR ESCALANTE RIVERO"	"CALLE 21"	"MERIDA"	"MERIDA"	"21.0220358"	"-89.5692285"
"COMUNIDAD EDUCATIVA MARIA MONTESSORI"	"CALLE 45 151"	"MERIDA"	"MERIDA"	"21.0220399"	"-89.6150082"
"CENTRO EDUCATIVO ITZAMNA"	"CALLE 24 67"	"MERIDA"	"MERIDA"	"21.0220706"	"-89.6371345"
"ITZAMNA"	"CALLE 24 67  Num. Exterior 85"	"MERIDA"	"MERIDA"	"21.0220706"	"-89.6371345"
"BAMBINI MONTESSORI"	"CALLE 29 120"	"MERIDA"	"MERIDA"	"21.022475"	"-89.629383"
"BAMBINI MONTESSORI"	"CALLE 29 120"	"MERIDA"	"MERIDA"	"21.022475"	"-89.629383"
"ENRIQUE GOTTDIENER SOTO"	"CALLE 31 201 NA"	"MERIDA"	"MERIDA"	"21.0225322"	"-89.5946464"
"ROSAURA ZAPATA"	"CALLE 22 163"	"MERIDA"	"MERIDA"	"21.0226673"	"-89.6284158"
"JOSE RENDON PENICHE"	"CALLE 47 DIAGONAL 255"	"MERIDA"	"MERIDA"	"21.0227197"	"-89.6074958"
"PETALITOS"	"CALLE 17 325"	"MERIDA"	"MERIDA"	"21.0231768"	"-89.5702672"
"JACINTO CANEK"	"CALLE 21"	"HUNUCMA"	"HUNUCMA"	"21.023216"	"-89.8805868"
"FRANCISCO DE MONTEJO EL MOZO"	"CALLE 57 332"	"MERIDA"	"MERIDA"	"21.0233828"	"-89.6453532"
"CASA BAMBINI"	"CALLE 13-A 337"	"MERIDA"	"MERIDA"	"21.0236425"	"-89.5712053"
"GABRIELA MISTRAL"	"CALLE 26-A 170 B"	"HUNUCMA"	"HUNUCMA"	"21.0240316"	"-89.8721095"
"BENITO JUAREZ GARCIA"	"CALLE 8"	"MERIDA"	"MERIDA"	"21.0244981"	"-89.5722402"
"CENTRO EDUCATIVO APRENDICES VISTA ALEGRE"	"CALLE 7 359"	"MERIDA"	"MERIDA"	"21.0248812"	"-89.5741738"
"PAIDOS"	"CALLE 41"	"MERIDA"	"MERIDA"	"21.0253331"	"-89.6071774"
"CENTRO EDUCATIVO RENACIMIENTO"	"CALLE 33 468"	"MERIDA"	"MERIDA"	"21.0254424"	"-89.5953899"
"CENTRO EDUCATIVO RENACIMIENTO"	"CALLE 33 468"	"MERIDA"	"MERIDA"	"21.0254424"	"-89.5953899"
"CENTRO EDUCATIVO RENACIMIENTO"	"CALLE 33 468"	"MERIDA"	"MERIDA"	"21.0254424"	"-89.5953899"
"FELIPE CARRILLO PUERTO"	"CALLE 20"	"MERIDA"	"MERIDA"	"21.02546"	"-89.627134"
"NUEVA CREACION"	"CALLE 100 663"	"MERIDA"	"MERIDA"	"21.0259775"	"-89.6254341"
"SOR JUANA INES DE LA CRUZ"	""	"SITPACH"	"MERIDA"	"21.0260213"	"-89.5115929"
"FELIPE ALCOCER CASTILLO"	"CALLE 20"	"UCU"	"UCU"	"21.0264306"	"-89.747956"
"MONTESSORI MONTECRISTO"	"CALLE 2-A 88"	"MERIDA"	"MERIDA"	"21.0265001"	"-89.5729926"
"MANUEL ALCALA MARTIN"	"CALLE 10"	"SITPACH"	"MERIDA"	"21.0265033"	"-89.5215881"
"CENTRO UNIVERSITARIO MONTEJO"	"CALLE 60 106"	"MERIDA"	"MERIDA"	"21.0266345"	"-89.6278128"
"INSTITUTO MONTECARLO"	"CALLE 23 221"	"MERIDA"	"MERIDA"	"21.0267877"	"-89.5791137"
"INSTITUTO BIRKHOFF"	"CALLE 3 DIAGONAL 184"	"MERIDA"	"MERIDA"	"21.027048"	"-89.630735"
"INSTITUTO BIRKHOFF"	"CALLE 3 DIAGONAL 184"	"MERIDA"	"MERIDA"	"21.027048"	"-89.630735"
"NACHI COCOM"	"CALLE 17 234"	"HUNUCMA"	"HUNUCMA"	"21.0274037"	"-89.8754841"
"EL HUERTO MONTESSORI"	"CARRETERA MERIDA-CHOLUL"	"MERIDA"	"MERIDA"	"21.0279674"	"-89.5600754"
"DAVID VIVAS ROMERO"	"CALLE 9"	"SITPACH"	"MERIDA"	"21.0280355"	"-89.5180164"
"ANGLO DE YUCATAN"	"CALLE 37-A 301"	"MERIDA"	"MERIDA"	"21.028121"	"-89.6053342"
"ANGLO DE YUCATAN"	"CALLE 37-A 303"	"MERIDA"	"MERIDA"	"21.028121"	"-89.6053342"
"WILLIAM KILPATRICK"	"CALLE 53-D 242"	"MERIDA"	"MERIDA"	"21.028207"	"-89.6441091"
"WILLIAM BENIGNO BRITO SANSORES"	"CALLE 53-D 242"	"MERIDA"	"MERIDA"	"21.028207"	"-89.6441091"
"MI POBRE ANGELITO"	"CALLE 55 423"	"MERIDA"	"MERIDA"	"21.0293387"	"-89.6537675"
"SARA MARIA CARRILLO VEGA"	"CALLE 53-B"	"MERIDA"	"MERIDA"	"21.0294482"	"-89.6440346"
"INSTITUTO DE EDUCACION PROGRESIVA-THE WORKSHOP"	"CALLE 46 317"	"MERIDA"	"MERIDA"	"21.0296793"	"-89.6447783"
"INSTITUTO DE EDUCACION PROGRESIVA-THE WORKSHOP"	"CALLE 46 317"	"MERIDA"	"MERIDA"	"21.0296793"	"-89.6447783"
"INSTITUTO DE EDUCACION PROGRESIVA THE WORKSHOP"	"CALLE 48 312"	"MERIDA"	"MERIDA"	"21.0296793"	"-89.6447783"
"ANDRES JOSE GARCIA LAVIN"	"CALLE 167 318"	"MERIDA"	"MERIDA"	"21.0297714"	"-89.6039336"
"JOSE ANDRES ANTUÑA SANCHEZ"	"CALLE 53-B"	"MERIDA"	"MERIDA"	"21.0298733"	"-89.6443568"
"PAIDOS"	"CALLE 53-D 242"	"MERIDA"	"MERIDA"	"21.0299322"	"-89.6432942"
"CENTRO DE EDUCACION INTEGRAL MONARCA"	""	"CHOLUL"	"MERIDA"	"21.0299902"	"-89.5637766"
"JOAQUIN CEBALLOS MIMENZA"	"CALLE 53 267"	"MERIDA"	"MERIDA"	"21.0304314"	"-89.6445053"
"CENTRO DE EDUCACION INTEGRAL PENINSULAR"	"CALLE 7 335 A"	"MERIDA"	"MERIDA"	"21.0304811"	"-89.6386829"
"CENTRO EDUCATIVO MONTESSORI NAJ PAALAAL DE MERIDA"	"CALLE 6"	"MERIDA"	"MERIDA"	"21.030813"	"-89.590287"
"COLEGIO EL HUERTO MONTESSORI"	""	"MERIDA"	"MERIDA"	"21.030813"	"-89.590287"
"COLEGIO YUCALPETEN"	"CALLE 53-B 332"	"MERIDA"	"MERIDA"	"21.0308276"	"-89.6487611"
"COLEGIO YUCALPETEN"	"CALLE 53-C 333"	"MERIDA"	"MERIDA"	"21.0308276"	"-89.6487611"
"CENTRO EDUCATIVO INFANTIL PARVULITOS"	"CALLE 51 273"	"MERIDA"	"MERIDA"	"21.0310754"	"-89.6445161"
"ROBERTO CASELLAS RIVAS"	"CALLE 53-B 369"	"MERIDA"	"MERIDA"	"21.0314556"	"-89.6500032"
"INSTITUTO SAN PATRICIO"	"CALLE 5-C 320"	"MERIDA"	"MERIDA"	"21.031713"	"-89.6335522"
"INSTITUTO SAN PATRICIO"	"CALLE 5-C 322"	"MERIDA"	"MERIDA"	"21.031713"	"-89.6335522"
"EL RUISEÑOR"	"CALLE 34"	"MERIDA"	"MERIDA"	"21.0318506"	"-89.6188648"
"ELDA CAMPOS NAVARRETE"	"CALLE 73"	"MERIDA"	"MERIDA"	"21.0321144"	"-89.6154805"
"COLEGIO ANGELUS"	"CARRETERA MERIDA-MOTUL"	"MERIDA"	"MERIDA"	"21.0326287"	"-89.5538278"
"COLEGIO ANGELUS"	""	"MERIDA"	"MERIDA"	"21.0326287"	"-89.5538278"
"GRUPO MONTESSORI DE LA CIUDAD DE MERIDA-A.C."	"CALLE 11 332"	"MERIDA"	"MERIDA"	"21.032716"	"-89.637858"
"GRUPO MONTESSORI DE LA CIUDAD DE MERIDA"	"CALLE 24 305 A"	"MERIDA"	"MERIDA"	"21.032716"	"-89.637858"
"GVC CENTRO DE ENSEÑANZA ROSADO PEREZ"	"CALLE 50 279"	"MERIDA"	"MERIDA"	"21.0327249"	"-89.6459467"
"FELIPE CARRILLO PUERTO"	"CALLE 26"	"MUXUPIP"	"MUXUPIP"	"21.0329819"	"-89.332248"
"RITA CETINA GUTIERREZ"	"CALLE 18"	"CHABLEKAL"	"MERIDA"	"21.0337416"	"-89.6510948"
"RITA CETINA GUTIERREZ"	"CALLE 58"	"MERIDA"	"MERIDA"	"21.0337416"	"-89.6510948"
"CENTRO EDUCATIVO WINNETKA"	"CALLE 49-B 334"	"MERIDA"	"MERIDA"	"21.0342772"	"-89.6475709"
"MIS PALOMITAS"	"CALLE 61 245"	"MERIDA"	"MERIDA"	"21.0344999"	"-89.6244122"
"CONSUELO ZAVALA CASTILLO"	"CALLE 49-D"	"MERIDA"	"MERIDA"	"21.0348396"	"-89.6510991"
"ZAMNA"	"CALLE 49 240"	"MERIDA"	"MERIDA"	"21.0365492"	"-89.6259317"
"ZAMNA"	"CALLE 49 240"	"MERIDA"	"MERIDA"	"21.0365492"	"-89.6259317"
"CORDEMEX"	"CALLE 49"	"MERIDA"	"MERIDA"	"21.0370961"	"-89.6260754"
"INSTITUTO PATRIA"	"CALLE PERIFERICO NORTE KM 2.5 (A ESPALDAS DE CITY CENTER)"	"MERIDA"	"MERIDA"	"21.0374306"	"-89.608317"
"PEQUEÑOS ARTISTAS"	"CALLE 43-B 334"	"MERIDA"	"MERIDA"	"21.037469"	"-89.6461941"
"CELESTIN FREINET"	"CALLE 19 524"	"MERIDA"	"MERIDA"	"21.0377038"	"-89.6411054"
"GUADALUPE VICTORIA"	"CALLE 39-A"	"MERIDA"	"MERIDA"	"21.0378531"	"-89.6163482"
"INSTITUTO PATRIA"	"CALLE PERIFERICO KILOMETRO 2.5"	"MERIDA"	"MERIDA"	"21.0380238"	"-89.6091485"
"INSTITUTO PATRIA"	"CALLE PERIFERICO KILOMETRO 2.5"	"MERIDA"	"MERIDA"	"21.0380238"	"-89.6091485"
"CENTRO EDUCATIVO PIAGET"	"CALLE 35"	"MERIDA"	"MERIDA"	"21.0389737"	"-89.6199272"
"CENTRO EDUCATIVO PIAGET SODZIL"	"CALLE 39"	"MERIDA"	"MERIDA"	"21.0389737"	"-89.6199272"
"CENTRO EDUCATIVO PIAGET SODZIL"	""	"MERIDA"	"MERIDA"	"21.0389737"	"-89.6199272"
"CARMEN CERVERA ANDRADE"	"CALLE 38 NA"	"MERIDA"	"MERIDA"	"21.0390326"	"-89.6223138"
"SEMILLITAS DEL MAYAB"	"CALLE 41-A 368"	"MERIDA"	"MERIDA"	"21.0395337"	"-89.6452232"
"JOSEFINA RAMOS DEL RIO"	"CALLE 20 86"	"CHOLUL MERIDA"	"MERIDA"	"21.0397067"	"-89.5567934"
"ALFREDO BARRERA VASQUEZ"	"CALLE 25 87 NA"	"CHOLUL MERIDA"	"MERIDA"	"21.0397211"	"-89.5557584"
"MUNDO PEQUEÑO"	"CALLE 50 140"	"MERIDA"	"MERIDA"	"21.0399874"	"-89.6427695"
"COMUNIDAD EDUCATIVA LOYOLA"	"CALLE 35 299 A"	"MERIDA"	"MERIDA"	"21.0400779"	"-89.6224332"
"COMUNIDAD EDUCATIVA LOYOLA"	"CALLE 35 299 A"	"MERIDA"	"MERIDA"	"21.0400779"	"-89.6224332"
"PRIMARIA COMUNITARIA"	""	"SUYTUNCHEN"	"MERIDA"	"21.0400779"	"-89.6224332"
"MI PEQUEÑO TESORO"	"CALLE 31 298"	"MERIDA"	"MERIDA"	"21.0402743"	"-89.6282799"
"SHAKTI"	"CALLE 50 122 B"	"MERIDA"	"MERIDA"	"21.0402871"	"-89.6425924"
"MONARCA"	"MANZANA 55"	"CHOLUL"	"MERIDA"	"21.040405"	"-89.5536141"
"CENTRO DE EDUCACION INTEGRAL MONARCA"	"MANZANA 55"	"CHOLUL MERIDA"	"MERIDA"	"21.040405"	"-89.5536141"
"ADOLFO LOPEZ MATEOS"	"CALLE 31"	"MUXUPIP"	"MUXUPIP"	"21.0415111"	"-89.3320844"
"AURELIANO PINTO RAMIREZ"	"CALLE 41 NA"	"MERIDA"	"MERIDA"	"21.0418253"	"-89.6486628"
"AURELIANO PINTO RAMIREZ"	"CALLE 41 NA"	"MERIDA"	"MERIDA"	"21.0418253"	"-89.6486628"
"AGUSTIN FRANCO VILLANUEVA"	"CALLE 21"	"CHOLUL"	"MERIDA"	"21.041936"	"-89.55316"
"AGUSTIN MELGAR"	"CALLE 21"	"CHOLUL"	"MERIDA"	"21.0419369"	"-89.553154"
"MANUEL CRESCENCIO REJON Y ALCALA"	"CALLE 39-A"	"MERIDA"	"MERIDA"	"21.042846"	"-89.6451362"
"JOSE MARIA MORELOS Y PAVON"	""	"YAXCHE DE PEON"	"UCU"	"21.043766"	"-89.7526266"
"EL JARDIN DE LA ABEJA"	"CALLE 29 289"	"MERIDA"	"MERIDA"	"21.0451415"	"-89.6399279"
"RICARDO LOPEZ MENDEZ"	"CALLE 92"	"MERIDA"	"MERIDA"	"21.0459941"	"-89.6296833"
"JUAN ALDAMA"	""	"MERIDA"	"MERIDA"	"21.0462157"	"-89.6223811"
"ADOLFO LOPEZ MATEOS"	"CALLE 20"	"TEYA"	"TEYA"	"21.0472596"	"-89.0742939"
"AGORA COMUNIDAD EDUCATIVA"	"CALLE 25"	"MERIDA"	"MERIDA"	"21.0475563"	"-89.6145918"
"AGORA COMUNIDAD EDUCATIVA"	""	"MERIDA"	"MERIDA"	"21.0475563"	"-89.6145918"
"PREESCOLAR COMUNITARIO"	""	"TEMOZON NORTE"	"MERIDA"	"21.0475563"	"-89.6145918"
"AGORA COMUNIDAD EDUCATIVA"	""	"MERIDA"	"MERIDA"	"21.0475563"	"-89.6145918"
"MIGUEL HIDALGO Y COSTILLA"	"CALLE 19"	"MUXUPIP"	"MUXUPIP"	"21.0497995"	"-89.3271169"
"REPUBLICA DE MEXICO"	""	"X-CUYUM"	"CONKAL"	"21.0504923"	"-89.4956447"
"COMUNIDAD EDUCATIVA ALIANZ"	"CARRETERA A PROGRESO"	"MERIDA"	"MERIDA"	"21.052785"	"-89.636221"
"COMUNIDAD EDUCATIVA ALIANZ"	"CARRETERA A PROGRESO"	"MERIDA"	"MERIDA"	"21.052785"	"-89.636221"
"COMUNIDAD EDUCATIVA ALIANZ"	"CARRETERA A PROGRESO"	"MERIDA"	"MERIDA"	"21.052785"	"-89.636221"
"CENTRO EDUCATIVO BLAS PASCAL"	"CARRETERA A DZITYA"	"MERIDA"	"MERIDA"	"21.0573887"	"-89.6463064"
"BLAS PASCAL"	"CARRETERA A DZITYA KILOMETRO 1.5"	"DZITYA"	"MERIDA"	"21.0573887"	"-89.6463064"
"INSTITUTO ARRAYANES"	"CALLE 40"	"MERIDA"	"MERIDA"	"21.059832"	"-89.61595"
"INSTITUTO ARRAYANES"	"CALLE 40"	"MERIDA"	"MERIDA"	"21.059832"	"-89.61595"
"PATRIA Y LIBERTAD"	"CALLE 21 106"	"YAXKUKUL"	"YAXKUKUL"	"21.0617572"	"-89.4205031"
"PATRIA Y LIBERTAD"	"CALLE 22 101 A"	"YAXKUKUL"	"YAXKUKUL"	"21.0617572"	"-89.4205031"
"PATRIA Y LIBERTAD"	"CALLE 22 103 A"	"YAXKUKUL"	"YAXKUKUL"	"21.0617572"	"-89.4205031"
"LIBERTAD MENENDEZ"	"CALLE 61-A 620"	"MERIDA"	"MERIDA"	"21.0632336"	"-89.6468966"
"LAS AMERICAS"	"CALLE 61-A 620"	"MERIDA"	"MERIDA"	"21.0639407"	"-89.6456373"
"GUADALUPE VICTORIA"	""	"TEMOZON NORTE"	"MERIDA"	"21.0643753"	"-89.5964707"
"COLEGIO LIBERTAD"	"CALLE 59 649"	"MERIDA"	"MERIDA"	"21.069449"	"-89.6480227"
"EL CASTILLO DE LOS NIÑOS"	"CALLE 59 933"	"MERIDA"	"MERIDA"	"21.0695723"	"-89.6621216"
"COLEGIO HUMANISTA ALFRED NOBEL"	"CALLE 118 221"	"MERIDA"	"MERIDA"	"21.0701376"	"-89.6637267"
"TUNBEN KIN"	"CALLE 23 76"	"CONKAL"	"CONKAL"	"21.0718897"	"-89.511269"
"RODOLFO MENENDEZ DE LA PEÑA"	"CALLE 21 103 A"	"CONKAL"	"CONKAL"	"21.0751215"	"-89.5206148"
"JAIME OROZA DIAZ"	""	"XCANATUN"	"MERIDA"	"21.0758053"	"-89.6274136"
"ALVARO OBREGON"	""	"XCANATUN"	"MERIDA"	"21.0760609"	"-89.6282049"
"MANO AMIGA CONKAL"	""	"CONKAL"	"CONKAL"	"21.0833695"	"-89.5285535"
"CENTRO EDUCATIVO MANO AMIGA CONKAL"	""	"CONKAL"	"CONKAL"	"21.0833695"	"-89.5285535"
"CENTRO EDUCATIVO MANO AMIGA"	""	"CONKAL"	"CONKAL"	"21.0833695"	"-89.5285535"
"TALES DE MILETO"	"CALLE 17 122"	"SUMA"	"SUMA"	"21.0869083"	"-89.1535751"
"JOSE MARIA MORELOS Y PAVON"	"CALLE 37 319"	"MOTUL DE CARRILLO PUERTO"	"MOTUL"	"21.0902707"	"-89.2917979"
"U N E S C O"	"CALLE 30 313 NA"	"MOTUL DE CARRILLO PUERTO"	"MOTUL"	"21.0918796"	"-89.2866977"
"ALFONSO TEC BUENFIL"	""	"KAXATAH"	"MOTUL"	"21.0921187"	"-89.2541787"
"COOX MEYAJ"	"CALLE 20"	"CHABLEKAL"	"MERIDA"	"21.0923769"	"-89.5776728"
"ROQUE JACINTO CAMPOS"	"CALLE 29 304"	"MOTUL DE CARRILLO PUERTO"	"MOTUL"	"21.0947005"	"-89.2854984"
"JOSE ROSAS MORENO"	"CALLE 20"	"MOTUL DE CARRILLO PUERTO"	"MOTUL"	"21.0950347"	"-89.2781179"
"SAN ANGEL"	"CALLE 24 305 A"	"MOTUL DE CARRILLO PUERTO"	"MOTUL"	"21.0965721"	"-89.2812541"
"COLEGIO SAN ANGEL"	"CALLE 24 305 A"	"MOTUL DE CARRILLO PUERTO"	"MOTUL"	"21.0965721"	"-89.2812541"
"MIGUEL JORGE"	""	"COSGAYA"	"MERIDA"	"21.0966405"	"-89.7047649"
